[{"addr":"7801 Blossom Dr","city":"Fort Worth","state":"TX","zip":"76133","n_payees":1,"n_payments":37,"total":21549.75,"names":["Barr, Grace"],"lon":-97.402078097217,"lat":32.630048771874,"matched":"7801 BLOSSOM DR, FORT WORTH, TX, 76133"},{"addr":"500 W 2nd St.","city":"Austin","state":"TX","zip":"78701","n_payees":1,"n_payments":101,"total":186908.59,"names":["Google, Inc."],"lon":-97.748780228256,"lat":30.265662185024,"matched":"500 W 2ND ST, AUSTIN, TX, 78701"},{"addr":"675 Ponce de Leon Ave NE, 5000","city":"Atlanta","state":"GA","zip":"30308","n_payees":1,"n_payments":3,"total":63.87,"names":["Mail Chimp"],"lon":-84.365182750081,"lat":33.773272810809,"matched":"675 PONCE DE LEON AVE NE, ATLANTA, GA, 30308"},{"addr":"250 Williams St. 5th Fl","city":"Atlanta","state":"GA","zip":"30303","n_payees":2,"n_payments":10,"total":2101.4,"names":["HEB","The Gift Card Shop"],"lon":-84.390621128699,"lat":33.761638359529,"matched":"250 WILLIAMS ST NW, ATLANTA, GA, 30303"},{"addr":"5 Schalks Crossing Rd, Ste 220","city":"Plainsboro","state":"NJ","zip":"08536","n_payees":1,"n_payments":3,"total":5929.05,"names":["L2 Inc."],"lon":-74.589367105936,"lat":40.343481773501,"matched":"5 SCHALKS CROSSING RD, PLAINSBORO, NJ, 08536"},{"addr":"505 Barton Springs Rd","city":"Austin","state":"TX","zip":"78704","n_payees":1,"n_payments":2,"total":50.0,"names":["Northwest Austin Civic Association"],"lon":-97.749273200861,"lat":30.258445516251,"matched":"505 BARTON SPRINGS RD, AUSTIN, TX, 78704"},{"addr":"4409 Duval St","city":"Austin","state":"TX","zip":"78751","n_payees":1,"n_payments":41,"total":18675.0,"names":["Perez, Mario"],"lon":-97.724824158898,"lat":30.306486215607,"matched":"4409 DUVAL ST, AUSTIN, TX, 78751"},{"addr":"802 Red River St.","city":"Austin","state":"TX","zip":"78701","n_payees":1,"n_payments":1,"total":437.7,"names":["EZ Cater Pelons"],"lon":-97.736525638707,"lat":30.268415575829,"matched":"802 RED RIVER ST, AUSTIN, TX, 78701"},{"addr":"3001 S Congress Ave","city":"Austin","state":"TX","zip":"78704","n_payees":2,"n_payments":32,"total":9796.0,"names":["Aguilar, Austin","Perrins, Will"],"lon":-97.757808218145,"lat":30.23336705748,"matched":"3001 CONGRESS AVE S, AUSTIN, TX, 78704"},{"addr":"1310 L St NW, 500","city":"Washington","state":"DC","zip":"20005","n_payees":1,"n_payments":6,"total":90.0,"names":["Action Squared"],"lon":-77.02992120495,"lat":38.903676917403,"matched":"1310 L ST NW, WASHINGTON, DC, 20005"},{"addr":"410 Terry Ave N","city":"Seattle","state":"WA","zip":"98109","n_payees":3,"n_payments":86,"total":5756.01,"names":["Amazon","Amazon.com","Amazon.com Services LLC"],"lon":-122.337065327617,"lat":47.622201075898,"matched":"410 TERRY AVE N, SEATTLE, WA, 98109"},{"addr":"10801 S-IH35 #345","city":"Austin","state":"TX","zip":"78754","n_payees":1,"n_payments":1,"total":616.0,"names":["Gerbre, Sofonias"],"lon":-97.794061529237,"lat":30.144342996762,"matched":"10801 S I- 35 SVC RD, AUSTIN, TX, 78747"},{"addr":"2600 Rio Grande Street","city":"Austin","state":"TX","zip":"78705","n_payees":3,"n_payments":3,"total":530.0,"names":["Cooks, Ricky","Gonzalez, Graham","Reyes, Leo"],"lon":-97.744485490235,"lat":30.290726633809,"matched":"2600 RIO GRANDE ST, AUSTIN, TX, 78705"},{"addr":"345 Park Ave","city":"San Jose","state":"CA","zip":"95110","n_payees":1,"n_payments":24,"total":868.21,"names":["Adobe Inc."],"lon":-121.896982853312,"lat":37.328625029974,"matched":"345 PARK AVE, SAN JOSE, CA, 95110"},{"addr":"520 WOODWARD ST APT #1534","city":"Austin","state":"TX","zip":"78704","n_payees":1,"n_payments":4,"total":2337.5,"names":["Aguilar, Austin"],"lon":-97.752873380079,"lat":30.226237980004,"matched":"520 WOODWARD ST, AUSTIN, TX, 78704"},{"addr":"1606 Headway Cir,","city":"Austin","state":"TX","zip":"78754","n_payees":1,"n_payments":2,"total":1268.7,"names":["American Printing"],"lon":-97.682928215423,"lat":30.334020638988,"matched":"1606 HEADWAY CIR, AUSTIN, TX, 78754"},{"addr":"5335 Gate Pkwy, 2nd Floor","city":"Jacksonville","state":"FL","zip":"32256","n_payees":1,"n_payments":2,"total":117.76,"names":["Bluehost"],"lon":-81.53590237565,"lat":30.248824675001,"matched":"5335 GATE PKWY, JACKSONVILLE, FL, 32256"},{"addr":"1340 Poydras Street, Suite 1770","city":"New Orleans","state":"LA","zip":"70112","n_payees":4,"n_payments":725,"total":17704.21,"names":["Anedot","Anedot Inc.","Anedot, Inc","Anedot, Inc."],"lon":-90.077029724118,"lat":29.951077208142,"matched":"1340 POYDRAS ST, NEW ORLEANS, LA, 70113"},{"addr":"1340 Poydras ST, Suite 1770","city":"New Orleans","state":"LA","zip":"70112","n_payees":1,"n_payments":9,"total":7049.52,"names":["Anedot, Inc."],"lon":-90.077029724118,"lat":29.951077208142,"matched":"1340 POYDRAS ST, NEW ORLEANS, LA, 70113"},{"addr":"228 Park Ave. S, PMB 62932","city":"New York","state":"NY","zip":"10003","n_payees":1,"n_payments":4,"total":800.0,"names":["Reach Progress PBC"],"lon":-73.988399838193,"lat":40.737519218696,"matched":"228 PARK AVE S, NEW YORK, NY, 10003"},{"addr":"1033 La Posada Dr, 220","city":"Austin","state":"TX","zip":"78752","n_payees":1,"n_payments":4,"total":89680.0,"names":["Adisa Communications"],"lon":-97.703631518442,"lat":30.325251847592,"matched":"1033 LA POSADA DR, AUSTIN, TX, 78752"},{"addr":"10551 Bilbrook Pl","city":"Austin","state":"TX","zip":"78748","n_payees":1,"n_payments":18,"total":92936.46,"names":["Wick, Jim"],"lon":-97.813123951417,"lat":30.159011687227,"matched":"10551 BILBROOK PL, AUSTIN, TX, 78748"},{"addr":"131 Honeycomb Ct","city":"Encinitas","state":"CA","zip":"92024","n_payees":1,"n_payments":53,"total":59809.15,"names":["Carr Marketing, Inc"],"lon":-117.246894168486,"lat":33.04547613711,"matched":"131 HONEYCOMB CT, ENCINITAS, CA, 92024"},{"addr":"3706 Greystone DR","city":"Austin","state":"TX","zip":"78731","n_payees":2,"n_payments":13,"total":7500.0,"names":["Parsons, Brad","Parsons, Bradley"],"lon":-97.754222649374,"lat":30.359063135163,"matched":"3706 GREYSTONE DR, AUSTIN, TX, 78731"},{"addr":"3607 Greystone, #2024","city":"Austin","state":"TX","zip":"78731","n_payees":1,"n_payments":12,"total":289964.44,"names":["Collective Campaigns"],"lon":-97.752193474331,"lat":30.358187264059,"matched":"3607 GREYSTONE DR, AUSTIN, TX, 78731"},{"addr":"501 Congress AVE","city":"Austin","state":"TX","zip":"78701","n_payees":1,"n_payments":4,"total":511.16,"names":["Drop Box"],"lon":-97.743085782708,"lat":30.267157571251,"matched":"501 CONGRESS AVE, AUSTIN, TX, 78701"},{"addr":"301 W 2nd St","city":"Austin","state":"TX","zip":"78701","n_payees":7,"n_payments":33,"total":10525.0,"names":["AUSTIN CITY HALL","Austin City Clerk","Austin City Hall","COA Parking Meters","City of Austin","City of Austin - Parking","Narro, Alison"],"lon":-97.746667725764,"lat":30.264958774964,"matched":"301 W 2ND ST, AUSTIN, TX, 78701"},{"addr":"1803 Crane Creek Blvd","city":"Melbourne","state":"FL","zip":"32940","n_payees":2,"n_payments":13,"total":71249.13,"names":["McDaniel","McDaniel, Eva"],"lon":-80.71793526038,"lat":28.243177231063,"matched":"1803 CRANE CREEK BLVD, MELBOURNE, FL, 32940"},{"addr":"327 Congress Ave, suite 100","city":"Austin","state":"TX","zip":"78701","n_payees":1,"n_payments":8,"total":453.14,"names":["Fedex Office"],"lon":-97.74368964262,"lat":30.265518702068,"matched":"327 CONGRESS AVE, AUSTIN, TX, 78701"},{"addr":"11066 Pecan Park Blvd","city":"Cedar Park","state":"TX","zip":"78613","n_payees":4,"n_payments":4,"total":256.51,"names":["Best Buy","Office Depot","Office Depot/OfficeMax","Pluckers"],"lon":-97.802330043324,"lat":30.470070031797,"matched":"11066 PECAN PARK BLVD, CEDAR PARK, TX, 78613"},{"addr":"2223 Waterloo City Ln, Apt 342","city":"Austin","state":"TX","zip":"78741","n_payees":1,"n_payments":29,"total":86056.28,"names":["Lars, Max"],"lon":-97.724204220887,"lat":30.242500440613,"matched":"2223 WATERLOO CITY LN, AUSTIN, TX, 78741"},{"addr":"6811 Mesa Dr.","city":"Austin","state":"TX","zip":"78731","n_payees":1,"n_payments":4,"total":2675.0,"names":["Biggar, William"],"lon":-97.767742427716,"lat":30.357715223218,"matched":"6811 MESA DR, AUSTIN, TX, 78731"},{"addr":"21393 IH 35 , #903","city":"Kyle","state":"TX","zip":"78640","n_payees":1,"n_payments":1,"total":730.0,"names":["Rodriguez, Evonne"],"lon":-97.875089452631,"lat":29.967192086711,"matched":"21393 I- 35, KYLE, TX, 78640"},{"addr":"440 Terry Avenue North","city":"Seattle","state":"WA","zip":"98109","n_payees":1,"n_payments":41,"total":5522.33,"names":["Amazon"],"lon":-122.337062842272,"lat":47.622524160618,"matched":"440 TERRY AVE N, SEATTLE, WA, 98109"},{"addr":"2713 Timber Brook Drive","city":"Plano","state":"TX","zip":"75074","n_payees":1,"n_payments":2,"total":37.73,"names":["Gong, Nathan"],"lon":-96.677814540764,"lat":33.065649704147,"matched":"2713 TIMBER BROOK DR, PLANO, TX, 75074"},{"addr":"214 Barton Springs Road, Apt 1907","city":"Austin","state":"TX","zip":"78704","n_payees":1,"n_payments":3,"total":710.0,"names":["Candido, Annie"],"lon":-97.747044605695,"lat":30.258980842886,"matched":"214 BARTON SPRINGS RD, AUSTIN, TX, 78704"},{"addr":"7211 Northeast Dr. #226,","city":"Austin","state":"TX","zip":"78723","n_payees":2,"n_payments":4,"total":1604.0,"names":["Apudo, George","Cosby, Maurese"],"lon":-97.680276641056,"lat":30.322695556152,"matched":"7211 NORTHEAST DR, AUSTIN, TX, 78723"},{"addr":"1600 Amphitheatre Pkwy","city":"Moutain View","state":"CA","zip":"94043","n_payees":1,"n_payments":10,"total":2533.62,"names":["Google Suite"],"lon":-122.083521249656,"lat":37.423120361623,"matched":"1600 AMPHITHEATRE PKWY, MOUNTAIN VIEW, CA, 94043"},{"addr":"301 W. 2nd ST","city":"Austin","state":"TX","zip":"78701","n_payees":2,"n_payments":7,"total":1520.0,"names":["City of Austin","City of Austin Clerk"],"lon":-97.746667725764,"lat":30.264958774964,"matched":"301 W 2ND ST, AUSTIN, TX, 78701"},{"addr":"4608 Bennett Ave","city":"Austin","state":"TX","zip":"78751","n_payees":2,"n_payments":12,"total":22081.2,"names":["Ohm, Ryan","Vaneron, Natalia"],"lon":-97.716861072065,"lat":30.305562920576,"matched":"4608 BENNETT AVE, AUSTIN, TX, 78751"},{"addr":"307 Cottonwood lane","city":"Pflugerville","state":"TX","zip":"78660","n_payees":1,"n_payments":8,"total":9616.66,"names":["The Camarillo Group"],"lon":-97.61489038664,"lat":30.445853026675,"matched":"307 COTTONWOOD LN, PFLUGERVILLE, TX, 78660"},{"addr":"1914 Patton Ln","city":"Austin","state":"TX","zip":"78723","n_payees":5,"n_payments":58,"total":173185.25,"names":["Atkins, Jesse","Butts, David","Butts, David J","David Butts","Jess Atkins"],"lon":-97.687265043207,"lat":30.318135729665,"matched":"1914 PATTON LN, AUSTIN, TX, 78723"},{"addr":"14200 Vance Jackson Rd, Apt 21105","city":"San Antonio","state":"TX","zip":"78249","n_payees":1,"n_payments":3,"total":1423.12,"names":["Marquez, Natalie"],"lon":-98.586212620748,"lat":29.577037889655,"matched":"14200 VANCE JACKSON RD, SAN ANTONIO, TX, 78249"},{"addr":"4811 Caswell Ave","city":"Austin","state":"TX","zip":"78751","n_payees":1,"n_payments":12,"total":7618.14,"names":["Zamarripa-Saenz, Lily"],"lon":-97.718483453404,"lat":30.309155727139,"matched":"4811 CASWELL AVE, AUSTIN, TX, 78751"},{"addr":"2421 E 7th St","city":"Austin","state":"TX","zip":"78702","n_payees":1,"n_payments":17,"total":179.0,"names":["Frost Bank"],"lon":-97.714758559047,"lat":30.260996442761,"matched":"2421 E 7TH ST, AUSTIN, TX, 78702"},{"addr":"2350 Ravine Way, Suite100","city":"Glenview","state":"IL","zip":"60025","n_payees":1,"n_payments":4,"total":3772.49,"names":["SurePayroll"],"lon":-87.811817267127,"lat":42.098387946406,"matched":"2350 RAVINE WAY, GLENVIEW, IL, 60025"},{"addr":"15511 Hwy 71 W","city":"Austin","state":"TX","zip":"78738","n_payees":1,"n_payments":2,"total":161.35,"names":["The UPS Store"],"lon":-97.983364557974,"lat":30.317090037067,"matched":"15511 W HWY 71, AUSTIN, TX, 78738"},{"addr":"11150 Research Blvd","city":"Austin","state":"TX","zip":"78759","n_payees":2,"n_payments":6,"total":528.51,"names":["Dollar Tree","Party City"],"lon":-97.745767383352,"lat":30.406520037539,"matched":"11150 RESEARCH BLVD, AUSTIN, TX, 78759"},{"addr":"6410 Ponca Street","city":"Austin","state":"TX","zip":"78741","n_payees":8,"n_payments":50,"total":124108.0,"names":["Del Goss","Delwin Goss","Delwin Goss Signs","Goss, Del","Goss, Delwin","M & G Sign Placement","M & G Sign Placement Services","M&G Sign Placement Services"],"lon":-97.694142017413,"lat":30.236720080118,"matched":"6410 PONCA ST, AUSTIN, TX, 78741"},{"addr":"5000 Woodview Ave.","city":"Austin","state":"TX","zip":"78756","n_payees":1,"n_payments":1,"total":4000.0,"names":["Susan Harry Consulting"],"lon":-97.74390256477,"lat":30.323744308329,"matched":"5000 WOODVIEW AVE, AUSTIN, TX, 78756"},{"addr":"2826 Salado St,","city":"Austin","state":"TX","zip":"78705","n_payees":1,"n_payments":1,"total":52.0,"names":["Mahoney, Jack"],"lon":-97.745111391606,"lat":30.295416831286,"matched":"2826 SALADO ST, AUSTIN, TX, 78705"},{"addr":"1105 Heritage Way","city":"Austin","state":"TX","zip":"78703","n_payees":1,"n_payments":1,"total":500.0,"names":["Kolb, Egan"],"lon":-97.771111931467,"lat":30.285696111432,"matched":"1105 HERITAGE WAY, AUSTIN, TX, 78703"},{"addr":"907 S. Center Street","city":"Austin","state":"TX","zip":"78704","n_payees":1,"n_payments":1,"total":618.0,"names":["Trumbly, James"],"lon":-97.771680685695,"lat":30.231298270158,"matched":"907 S CENTER ST, AUSTIN, TX, 78704"},{"addr":"7413 Whistlestop Dr","city":"Austin","state":"TX","zip":"78749","n_payees":1,"n_payments":22,"total":8599.0,"names":["Shmeis, Lola"],"lon":-97.865667666472,"lat":30.22359499199,"matched":"7413 WHISTLESTOP DR, AUSTIN, TX, 78749"},{"addr":"4704 Cabob Street","city":"Austin","state":"TX","zip":"78744","n_payees":1,"n_payments":3,"total":4000.0,"names":["Morales, George"],"lon":-97.743932932676,"lat":30.19274561787,"matched":"4704 CABOB ST, AUSTIN, TX, 78744"},{"addr":"3110 Manor Rd, Suite H","city":"Austin","state":"TX","zip":"78723","n_payees":3,"n_payments":182,"total":3475388.35,"names":["Y Strategy","Y Strategy LLC","Y-Strategy"],"lon":-97.704801610347,"lat":30.286593197924,"matched":"3110 MANOR RD, AUSTIN, TX, 78723"},{"addr":"19000 Limestone Commercial Dr, Unit 500","city":"Pflugerville","state":"TX","zip":"78660","n_payees":1,"n_payments":7,"total":777.95,"names":["Office Depot"],"lon":-97.595181102039,"lat":30.4713354045,"matched":"19000 LIMESTONE COMMERCIAL DR, PFLUGERVILLE, TX, 78660"},{"addr":"1733 Dapplegrey Ln","city":"Austin","state":"TX","zip":"78727","n_payees":1,"n_payments":7,"total":850.0,"names":["Painaik, Elif"],"lon":-97.687230623433,"lat":30.414172623834,"matched":"1733 DAPPLEGREY LN, AUSTIN, TX, 78727"},{"addr":"3607 Greystone Dr","city":"Austin","state":"TX","zip":"78731","n_payees":1,"n_payments":1,"total":5180.46,"names":["PRO Contact Strategies"],"lon":-97.752193474331,"lat":30.358187264059,"matched":"3607 GREYSTONE DR, AUSTIN, TX, 78731"},{"addr":"9520 Spectrum Dr. Apt. 15301","city":"Austin","state":"TX","zip":"78717","n_payees":1,"n_payments":6,"total":1950.0,"names":["Paz, Odenir"],"lon":-97.768550354829,"lat":30.481168050771,"matched":"9520 SPECTRUM DR, AUSTIN, TX, 78717"},{"addr":"630 W 34th St, Suite 302","city":"Austin","state":"TX","zip":"78705","n_payees":1,"n_payments":2,"total":200.0,"names":["Annie's List"],"lon":-97.740137789528,"lat":30.300640329272,"matched":"630 W 34TH ST, AUSTIN, TX, 78705"},{"addr":"5629 N. Lamar Blvd. Apt. 451","city":"Austin","state":"TX","zip":"78751","n_payees":1,"n_payments":1,"total":3000.0,"names":["McGee, Sarah"],"lon":-97.727137413934,"lat":30.324571809088,"matched":"5629 N LAMAR BLVD, AUSTIN, TX, 78751"},{"addr":"112 E Pecan St, Suite 1135","city":"San Antonio","state":"TX","zip":"78205","n_payees":1,"n_payments":3,"total":191.65,"names":["Sinch Mailjet"],"lon":-98.491975146811,"lat":29.428606272562,"matched":"112 E PECAN ST, SAN ANTONIO, TX, 78205"},{"addr":"3851 Avenue F","city":"Austin","state":"TX","zip":"78751","n_payees":1,"n_payments":2,"total":319.0,"names":["Brown, Bethny"],"lon":-97.731624611784,"lat":30.301550114674,"matched":"3851 AVE F, AUSTIN, TX, 78751"},{"addr":"9501 N. I-35 Service Rd","city":"Ausitn","state":"TX","zip":"78753","n_payees":1,"n_payments":15,"total":121411.5,"names":["Thomas Graphics, Inc."],"lon":-97.687040952358,"lat":30.358697622851,"matched":"9501 N I- 35 SVC RD, AUSTIN, TX, 78753"},{"addr":"3575 Far West Blvd","city":"Austin","state":"TX","zip":"78731","n_payees":2,"n_payments":6,"total":1384.0,"names":["US Postal Service","USPS"],"lon":-97.75430295937,"lat":30.353834698259,"matched":"3575 FAR WEST BLVD, AUSTIN, TX, 78731"},{"addr":"13742 Harper st","city":"Santa Ana","state":"CA","zip":"92703","n_payees":1,"n_payments":3,"total":367.16,"names":["Scale to Win"],"lon":-117.914242396959,"lat":33.762908899769,"matched":"13742 HARPER ST, SANTA ANA, CA, 92703"},{"addr":"6800 West Gate Blvd #130","city":"Austin","state":"TX","zip":"78745","n_payees":1,"n_payments":2,"total":111.48,"names":["Print Austin"],"lon":-97.814530903302,"lat":30.208779755287,"matched":"6800 W GATE BLVD, AUSTIN, TX, 78745"},{"addr":"4600 Elmont Dr.","city":"Austin","state":"TX","zip":"78761","n_payees":1,"n_payments":2,"total":3328.5,"names":["Vasquez, Alberto"],"lon":-97.717115862445,"lat":30.237546566588,"matched":"4600 ELMONT DR, AUSTIN, TX, 78741"},{"addr":"4610 Milburn Ln","city":"Austin","state":"TX","zip":"78702","n_payees":2,"n_payments":4,"total":768.0,"names":["Laduca, Gace","Laduca, Grace"],"lon":-97.699332756325,"lat":30.259308957502,"matched":"4610 MILBURN LN, AUSTIN, TX, 78702"},{"addr":"2203 Matterhorn","city":"Austin","state":"TX","zip":"78704","n_payees":1,"n_payments":1,"total":208.8,"names":["Kirsch, Fin"],"lon":-97.787460985143,"lat":30.251290076739,"matched":"2203 MATTERHORN LN, AUSTIN, TX, 78704"},{"addr":"1910 Westward Ho Trail","city":"Austin","state":"TX","zip":"78734","n_payees":1,"n_payments":4,"total":4262.5,"names":["Oliver, Jackie"],"lon":-97.934327936991,"lat":30.37766581931,"matched":"1910 WESTWARD HO TRL, AUSTIN, TX, 78734"},{"addr":"408 Josephine St","city":"Austin","state":"TX","zip":"78704","n_payees":1,"n_payments":1,"total":107.31,"names":["House Wine"],"lon":-97.758528385309,"lat":30.262185189661,"matched":"408 JOSEPHINE ST, AUSTIN, TX, 78704"},{"addr":"2111 Grand Ave Pkwy","city":"Austin","state":"TX","zip":"78728","n_payees":2,"n_payments":10,"total":5919.13,"names":["Horizon Printing","Horizon Printing & Mailing"],"lon":-97.670241330566,"lat":30.45630523518,"matched":"2111 GRAND AVENUE PKWY, AUSTIN, TX, 78728"},{"addr":"2222 E Oltorf St","city":"Austin","state":"TX","zip":"78741","n_payees":1,"n_payments":1,"total":16.24,"names":["Circle K"],"lon":-97.731366232889,"lat":30.229958517139,"matched":"2222 E OLTORF ST, AUSTIN, TX, 78741"},{"addr":"303 Terrace Drive","city":"Austin","state":"TX","zip":"78704","n_payees":2,"n_payments":3,"total":550.0,"names":["Judah Rice Photo","Rice, Judah"],"lon":-97.749593856132,"lat":30.243099447572,"matched":"303 TERRACE DR, AUSTIN, TX, 78704"},{"addr":"1601 Trapelo Rd","city":"Waltham","state":"MA","zip":"92451","n_payees":1,"n_payments":9,"total":102.81,"names":["Constant Contact"],"lon":-71.259853853885,"lat":42.41606860408,"matched":"1601 TRAPELO RD, WALTHAM, MA, 02451"},{"addr":"5555 N Lamar Blvd, C123","city":"Austin","state":"TX","zip":"78751","n_payees":1,"n_payments":1,"total":103.09,"names":["Generation SERVE"],"lon":-97.727628130341,"lat":30.323802057897,"matched":"5555 N LAMAR BLVD, AUSTIN, TX, 78751"},{"addr":"4211 BRANDYWINE STREET NW","city":"Washiongton","state":"DC","zip":"20016","n_payees":1,"n_payments":1,"total":7500.0,"names":["CVIC"],"lon":-77.082277529921,"lat":38.949745501474,"matched":"4211 BRANDYWINE ST NW, WASHINGTON, DC, 20016"},{"addr":"3110 Manor Rd, Ste H","city":"Austin","state":"TX","zip":"78723","n_payees":3,"n_payments":104,"total":798886.67,"names":["Y Strategy","Y Strategy, LLC","Y-Strategy"],"lon":-97.704801610347,"lat":30.286593197924,"matched":"3110 MANOR RD, AUSTIN, TX, 78723"},{"addr":"675 Ponce de Leon NE","city":"Atlanta","state":"GA","zip":"30308","n_payees":1,"n_payments":6,"total":147.12,"names":["Rocket Science Group"],"lon":-84.365182750081,"lat":33.773272810809,"matched":"675 PONCE DE LEON AVE NE, ATLANTA, GA, 30308"},{"addr":"2601 Mission ST","city":"San Francisco","state":"CA","zip":"94110","n_payees":1,"n_payments":12,"total":224.04,"names":["wix.com"],"lon":-122.418669568093,"lat":37.755383238406,"matched":"2601 MISSION ST, SAN FRANCISCO, CA, 94110"},{"addr":"1311 E 6th St , #B","city":"Austin","state":"TX","zip":"78702","n_payees":1,"n_payments":3,"total":3000.0,"names":["Travis County Democratic Party"],"lon":-97.729400097899,"lat":30.263940153587,"matched":"1311 E 6TH ST, AUSTIN, TX, 78702"},{"addr":"7300 Hart Ln","city":"Austin","state":"TX","zip":"78731","n_payees":2,"n_payments":4,"total":421.84,"names":["Congregation Agudas Achim","Shalom Austin"],"lon":-97.755017359382,"lat":30.356993377371,"matched":"7300 HART LN, AUSTIN, TX, 78731"},{"addr":"2326 Webberville Rd","city":"Austin","state":"TX","zip":"78702","n_payees":3,"n_payments":4,"total":14344.57,"names":["Crowe, Natalie","Crowe, Natlie","Save Austin Soul Pac"],"lon":-97.715282350884,"lat":30.262539601915,"matched":"2326 WEBBERVILLE RD, AUSTIN, TX, 78702"},{"addr":"3101 Davis Ln, Apt 5801","city":"Austin","state":"TX","zip":"78748","n_payees":1,"n_payments":5,"total":2850.0,"names":["Demopoulos, John"],"lon":-97.834918359585,"lat":30.191608030347,"matched":"3101 DAVIS LN, AUSTIN, TX, 78748"},{"addr":"8000 Shoal Creek BLVD","city":"Austin","state":"TX","zip":"78757","n_payees":1,"n_payments":9,"total":1045.05,"names":["Lowe's"],"lon":-97.740001970469,"lat":30.36324663261,"matched":"8000 SHOAL CREEK BLVD, AUSTIN, TX, 78757"},{"addr":"5200 North Lamar Boulevard","city":"Austin","state":"TX","zip":"78751","n_payees":1,"n_payments":2,"total":1772.54,"names":["Caballero, Roberto"],"lon":-97.730318378952,"lat":30.319686112178,"matched":"5200 N LAMAR BLVD, AUSTIN, TX, 78751"},{"addr":"129 Circle Way , Suite 100","city":"Lake Jackson","state":"TX","zip":"77566","n_payees":1,"n_payments":1,"total":5000.0,"names":["Huffman, Joan"],"lon":-95.449069713983,"lat":29.043048178112,"matched":"129 CIRCLE WAY, LAKE JACKSON, TX, 77566"},{"addr":"855 Folsom St Unit 125","city":"San Francisco","state":"CA","zip":"94107","n_payees":1,"n_payments":8,"total":1555.77,"names":["Universe Digital Inc"],"lon":-122.40233197526,"lat":37.781018312215,"matched":"855 FOLSOM ST, SAN FRANCISCO, CA, 94107"},{"addr":"1600 Amphitheatre Parkway","city":"Mountain View","state":"CA","zip":"94043","n_payees":9,"n_payments":125,"total":16319.11,"names":["GSuite","Google","Google Ads","Google Domains","Google Inc","Google Inc.","Google Voice","Google, Inc.","Motion Chrome App"],"lon":-122.083521249656,"lat":37.423120361623,"matched":"1600 AMPHITHEATRE PKWY, MOUNTAIN VIEW, CA, 94043"},{"addr":"7414 Burnet Rd","city":"Austin","state":"TX","zip":"78757","n_payees":3,"n_payments":9,"total":2506.41,"names":["EL MERCADO","EL MERCADO RESTAURANT","El Mercado"],"lon":-97.734887838782,"lat":30.349720344633,"matched":"7414 BURNET RD, AUSTIN, TX, 78757"},{"addr":"907 W 5th St","city":"Austin","state":"TX","zip":"78703","n_payees":6,"n_payments":47,"total":5409.96,"names":["Caffe Medici","OFFICE DEPOT","OFFICE MAX/OFFICE","Office Depot","Office Max Austin","OfficeMax"],"lon":-97.753327110128,"lat":30.269738295045,"matched":"907 W 5TH ST, AUSTIN, TX, 78703"},{"addr":"5907 Burnet Rd","city":"Austin","state":"TX","zip":"78757","n_payees":4,"n_payments":50,"total":40229.5,"names":["BUMPERACTIVE.COM","BumperActive","Bumperactive","Bumperactive.com"],"lon":-97.739739016854,"lat":30.334942323317,"matched":"5907 BURNET RD, AUSTIN, TX, 78757"},{"addr":"420 Taylor St","city":"San Francisco","state":"CA","zip":"94102","n_payees":1,"n_payments":3,"total":982.8,"names":["NextDoor.com"],"lon":-122.411300525335,"lat":37.786233589737,"matched":"420 TAYLOR ST, SAN FRANCISCO, CA, 94102"},{"addr":"4400A Vaughn St","city":"Austin","state":"TX","zip":"78723","n_payees":1,"n_payments":2,"total":375.0,"names":["Christopher, Ndubuizu"],"lon":-97.697678962426,"lat":30.29581499935,"matched":"4400A VAUGHAN ST, AUSTIN, TX, 78723"},{"addr":"5775 Airport Blvd #100","city":"Austin","state":"TX","zip":"78752","n_payees":1,"n_payments":2,"total":754.04,"names":["Specs"],"lon":-97.714248499745,"lat":30.32218049442,"matched":"5775 AIRPORT BLVD, AUSTIN, TX, 78752"},{"addr":"600 Congress Ave","city":"Austin","state":"TX","zip":"78701","n_payees":1,"n_payments":1,"total":71.13,"names":["Sir Speedy Printing"],"lon":-97.742856218692,"lat":30.268138089752,"matched":"600 CONGRESS AVE, AUSTIN, TX, 78701"},{"addr":"404 W 26th St","city":"Austin","state":"TX","zip":"78705","n_payees":1,"n_payments":2,"total":237.57,"names":["The Pizza Press"],"lon":-97.741980358213,"lat":30.290544912456,"matched":"404 W 26TH ST, AUSTIN, TX, 78705"},{"addr":"7200 Teaberry Drive","city":"Austin","state":"TX","zip":"78745","n_payees":1,"n_payments":1,"total":300.0,"names":["Pickens, Damarcus"],"lon":-97.789846654819,"lat":30.191440680147,"matched":"7200 TEABERRY DR, AUSTIN, TX, 78745"},{"addr":"2718 Guadalupe St","city":"Austin","state":"TX","zip":"78705","n_payees":1,"n_payments":1,"total":101.08,"names":["ALL ASIAN CONCESSION"],"lon":-97.741348189305,"lat":30.292391861533,"matched":"2718 GUADALUPE ST, AUSTIN, TX, 78705"},{"addr":"12041 Dessau Road, 412","city":"Austin","state":"TX","zip":"78754","n_payees":1,"n_payments":2,"total":1218.84,"names":["Townsend, Chelsea"],"lon":-97.651235430735,"lat":30.382157827607,"matched":"12041 DESSAU RD, AUSTIN, TX, 78754"},{"addr":"807 Brazos St., Suite 202","city":"Austin","state":"TX","zip":"78701","n_payees":15,"n_payments":29,"total":68356.0,"names":["Blandford, Isaac","Bryson, Quinton","Cheney, Logan","Donnelly, Thomas","Fuller, Haley","Gamboa, Ingrid","Hellman, Paula","Jones, Spencer","LeBlanc, Ethan","Pollet, Grant","Renfro, Jacob","Rodriguez, Sylvan","Ruddle, Brian","Spikes, Gabriel","Zolotar, Iryna"],"lon":-97.740676928135,"lat":30.269620007044,"matched":"807 BRAZOS ST, AUSTIN, TX, 78701"},{"addr":"9036 N. Lamar Blvd. , #103","city":"Austin","state":"TX","zip":"78753","n_payees":1,"n_payments":1,"total":44.29,"names":["Perez de la Paz, Teresa Maria"],"lon":-97.698023498985,"lat":30.361358103177,"matched":"9036 N LAMAR BLVD, AUSTIN, TX, 78753"},{"addr":"520 Woodward St.","city":"Austin","state":"TX","zip":"78704","n_payees":3,"n_payments":4,"total":1209.0,"names":["Isabelle Garza","Kate Neuschwanger","Victoria Fleming"],"lon":-97.752873380079,"lat":30.226237980004,"matched":"520 WOODWARD ST, AUSTIN, TX, 78704"},{"addr":"2000 Burton Dr #103, Unit A","city":"Austin","state":"TX","zip":"78758","n_payees":1,"n_payments":1,"total":358.31,"names":["Robertson, Jessica"],"lon":-97.731880206592,"lat":30.233718165064,"matched":"2000 BURTON DR, AUSTIN, TX, 78741"},{"addr":"7438 Quesada Ave","city":"Anchorage","state":"AK","zip":"99506","n_payees":1,"n_payments":1,"total":450.0,"names":["Mabbutt, Lisa"],"lon":-149.814817839624,"lat":61.239770596815,"matched":"7438 QUESADA AVE, ANCHORAGE, AK, 99506"},{"addr":"675 Ponce De Leon Ave, Northeast Suite","city":"Atlanta","state":"GA","zip":"30308","n_payees":1,"n_payments":4,"total":72.48,"names":["Mailchimp"],"lon":-84.365182750081,"lat":33.773272810809,"matched":"675 PONCE DE LEON AVE NE, ATLANTA, GA, 30308"},{"addr":"2300 Clarendon Blvd , Suite 800","city":"Arlington","state":"TX","zip":"22201","n_payees":1,"n_payments":14,"total":13368.16,"names":["i360 LLC"],"lon":-77.086523515603,"lat":38.890328068824,"matched":"2300 CLARENDON BLVD, ARLINGTON, VA, 22201"},{"addr":"915 Glenwood Ave SE Apt 711","city":"Atlanta","state":"GA","zip":"30316","n_payees":1,"n_payments":5,"total":1975.0,"names":["Neil, Chopra"],"lon":-84.357481161161,"lat":33.739698783339,"matched":"915 GLENWOOD AVE SE, ATLANTA, GA, 30316"},{"addr":"6506 Shirley Ave","city":"Austin","state":"TX","zip":"78752","n_payees":2,"n_payments":7,"total":2932.05,"names":["Landgraf, Stephanie","Stephanie, Landgraf"],"lon":-97.721124085484,"lat":30.332244677995,"matched":"6506 SHIRLEY AVE, AUSTIN, TX, 78752"},{"addr":"1045 A Reinli Street","city":"Austin","state":"TX","zip":"78723","n_payees":1,"n_payments":7,"total":2981.73,"names":["Bumperactive.com"],"lon":-97.70403951141,"lat":30.316974641237,"matched":"1045 REINLI ST, AUSTIN, TX, 78723"},{"addr":"9520 Spectrum Dr. Apt. 15302","city":"Austin","state":"TX","zip":"78717","n_payees":1,"n_payments":8,"total":1933.0,"names":["Sosa, Soralinda"],"lon":-97.768550354829,"lat":30.481168050771,"matched":"9520 SPECTRUM DR, AUSTIN, TX, 78717"},{"addr":"6506 Woodhue Dr.","city":"Austin","state":"TX","zip":"78745","n_payees":2,"n_payments":2,"total":88.58,"names":["Gonzalez, Karen","Quintana, Graciela"],"lon":-97.796732017129,"lat":30.203704909759,"matched":"6506 WOODHUE DR, AUSTIN, TX, 78745"},{"addr":"130 JACKSON LANE","city":"San Marcos","state":"TX","zip":"78666","n_payees":1,"n_payments":2,"total":73.78,"names":["Thompson, Danielle"],"lon":-97.91749288818,"lat":29.890953497211,"matched":"130 JACKSON LN, SAN MARCOS, TX, 78666"},{"addr":"2616 Salado St, Apt 401","city":"Austin","state":"TX","zip":"78705","n_payees":1,"n_payments":8,"total":2013.23,"names":["Ramirez, William"],"lon":-97.74541666446,"lat":30.291002535296,"matched":"2616 SALADO ST, AUSTIN, TX, 78705"},{"addr":"241 Earl Garrett St","city":"Kerville","state":"TX","zip":"78028","n_payees":1,"n_payments":2,"total":1000.0,"names":["Community Foundation"],"lon":-99.14004745668,"lat":30.045915882253,"matched":"241 EARL GARRETT ST, KERRVILLE, TX, 78028"},{"addr":"199 Jarbridge Dr.","city":"Kyle","state":"TX","zip":"78640","n_payees":4,"n_payments":9,"total":1190.72,"names":["Betancourt, Guadalupe","Salvador, Dafhne","Salvador, German","Salvador, Martin"],"lon":-97.88581092924,"lat":29.985473863359,"matched":"199 JARBRIDGE DR, KYLE, TX, 78640"},{"addr":"354 Oyster Point Blvd, South","city":"San Francisco","state":"CA","zip":"94080","n_payees":1,"n_payments":2,"total":1094.93,"names":["Stripe, Inc."],"lon":-122.386095424997,"lat":37.662551399385,"matched":"354 OYSTER POINT BLVD, SOUTH SAN FRANCISCO, CA, 94080"},{"addr":"1304 Poydras St, Suite 1770","city":"New Orleans","state":"LA","zip":"70112","n_payees":1,"n_payments":5,"total":1117.88,"names":["Anedot"],"lon":-90.076755756083,"lat":29.950978821816,"matched":"1304 POYDRAS ST, NEW ORLEANS, LA, 70113"},{"addr":"2532 Venado Camino","city":"Walnut Creek","state":"CA","zip":"94598","n_payees":1,"n_payments":1,"total":199.0,"names":["Vocal Video"],"lon":-122.022601485459,"lat":37.924045742362,"matched":"2532 VENADO CAMINO, WALNUT CREEK, CA, 94598"},{"addr":"8225 Cross Park Dr.","city":"Austin","state":"TX","zip":"78710","n_payees":2,"n_payments":35,"total":22119.37,"names":["USPS","United States Postal Service"],"lon":-97.668253159982,"lat":30.334045020904,"matched":"8225 CROSS PARK DR, AUSTIN, TX, 78710"},{"addr":"4600 Elmont Dr., #1812","city":"Austin","state":"TX","zip":"78741","n_payees":1,"n_payments":4,"total":11666.0,"names":["Vasquez, Alberto \"Skip\""],"lon":-97.717115862445,"lat":30.237546566588,"matched":"4600 ELMONT DR, AUSTIN, TX, 78741"},{"addr":"903 Isle of Man Court","city":"Pflugerville","state":"TX","zip":"78660","n_payees":1,"n_payments":1,"total":150.0,"names":["Matthew, Brooks"],"lon":-97.640653605736,"lat":30.46030453927,"matched":"903 ISLE OF MAN CT, PFLUGERVILLE, TX, 78660"},{"addr":"1105 E Cesar Chavez St.","city":"Austin","state":"TX","zip":"78702","n_payees":1,"n_payments":3,"total":12.2,"names":["Austin Public Library"],"lon":-97.733539601675,"lat":30.260156995693,"matched":"1105 E CESAR CHAVEZ ST, AUSTIN, TX, 78702"},{"addr":"103 E St. SE.","city":"Washington","state":"DC","zip":"20003","n_payees":1,"n_payments":1,"total":28900.0,"names":["Ragnar Research Partners"],"lon":-77.005773217519,"lat":38.883174920638,"matched":"103 E ST SE, WASHINGTON, DC, 20003"},{"addr":"54 Robert Road","city":"Manchester","state":"CT","zip":"06040","n_payees":3,"n_payments":29,"total":91588.43,"names":["Blue Edge Strategies","Farina, Mike","Mike, Farina"],"lon":-72.500178851212,"lat":41.77830697628,"matched":"54 ROBERT RD, MANCHESTER, CT, 06040"},{"addr":"11701 Barchetta Dr.","city":"Austin","state":"TX","zip":"78758","n_payees":1,"n_payments":2,"total":50.0,"names":["Austin Environmental Democrats"],"lon":-97.696140070916,"lat":30.392498007173,"matched":"11701 BARCHETTA DR, AUSTIN, TX, 78758"},{"addr":"3001 Ranch Rd 620 S","city":"Austin","state":"TX","zip":"78738","n_payees":1,"n_payments":1,"total":23.39,"names":["The Grove"],"lon":-97.968457008877,"lat":30.333688935977,"matched":"3001 RANCH RD 620 S, AUSTIN, TX, 78738"},{"addr":"1766 FM 967, Suite C","city":"Buda","state":"TX","zip":"78610","n_payees":2,"n_payments":13,"total":446206.0,"names":["Strother & Company","Texas Petition Strategies"],"lon":-97.848702406199,"lat":30.100561879712,"matched":"1766 FM 967, BUDA, TX, 78610"},{"addr":"6706 Tulane Drive","city":"Austin","state":"TX","zip":"78723","n_payees":1,"n_payments":4,"total":10220.72,"names":["Hart, Mallory"],"lon":-97.66943682423,"lat":30.311832136967,"matched":"6706 TULANE DR, AUSTIN, TX, 78723"},{"addr":"214 Barton Springs Rd","city":"Austin","state":"TX","zip":"78704","n_payees":1,"n_payments":2,"total":8000.0,"names":["Annie Candido"],"lon":-97.747044605695,"lat":30.258980842886,"matched":"214 BARTON SPRINGS RD, AUSTIN, TX, 78704"},{"addr":"2005 Wheless Lane","city":"Austin","state":"TX","zip":"78723","n_payees":1,"n_payments":6,"total":35.5,"names":["Austin Creative Reuse"],"lon":-97.68770220831,"lat":30.313762259736,"matched":"2005 WHELESS LN, AUSTIN, TX, 78723"},{"addr":"440 E St Elmo Rd, unit f","city":"Austin","state":"TX","zip":"78745","n_payees":1,"n_payments":2,"total":176.0,"names":["Still Austin Whiskey"],"lon":-97.762749009545,"lat":30.215433927427,"matched":"440 E ST ELMO RD, AUSTIN, TX, 78745"},{"addr":"1901 Ave of the Stars, # 200","city":"Los Angeles","state":"CA","zip":"90067","n_payees":1,"n_payments":2,"total":247.92,"names":["TEXTEDLY"],"lon":-118.417230138074,"lat":34.059794338793,"matched":"1901 S AVE OF THE STARS, LOS ANGELES, CA, 90067"},{"addr":"10327 Mist Ln","city":"Houston","state":"TX","zip":"77070","n_payees":1,"n_payments":1,"total":50.0,"names":["Gutierrez, Joseph"],"lon":-95.574257664089,"lat":29.958669473731,"matched":"10327 MIST LN, HOUSTON, TX, 77070"},{"addr":"103 Woodley rd","city":"Leander","state":"TX","zip":"78641","n_payees":1,"n_payments":4,"total":2062.5,"names":["Rojas, Symphony"],"lon":-97.862801833414,"lat":30.575422612049,"matched":"103 WOODLEY RD, LEANDER, TX, 78641"},{"addr":"2141 E Broadway Rd, Ste 202","city":"Tempe","state":"AZ","zip":"85282","n_payees":2,"n_payments":34,"total":91009.12,"names":["Paragon Payment Solutions","Paragon Solutions"],"lon":-111.894627649203,"lat":33.407442583498,"matched":"2141 E BROADWAY RD, TEMPE, AZ, 85282"},{"addr":"8303 N Mopac Expy suite a-120","city":"Austin","state":"TX","zip":"78759","n_payees":4,"n_payments":16,"total":7470.0,"names":["Haynie & Co","Haynie & Company","Haynie + Co","Haynie and Co"],"lon":-97.741097863256,"lat":30.370316368124,"matched":"8303 N MO-PAC EXPY, AUSTIN, TX, 78759"},{"addr":"12605 Modena Trail","city":"Austin","state":"TX","zip":"78729","n_payees":1,"n_payments":1,"total":240.0,"names":["Preston, Max"],"lon":-97.763834467487,"lat":30.444831452064,"matched":"12605 MODENA TRL, AUSTIN, TX, 78729"},{"addr":"2001 W. Anderson Ln.","city":"Austin","state":"TX","zip":"78757","n_payees":2,"n_payments":3,"total":85.93,"names":["Genuine Coffee","Genuine Joe Coffeehouse"],"lon":-97.727073150799,"lat":30.354263473214,"matched":"2001 W ANDERSON LN, AUSTIN, TX, 78757"},{"addr":"1215 31st Street NW","city":"Washington","state":"DC","zip":"20007","n_payees":2,"n_payments":3,"total":285.0,"names":["Campaign Verify","Campaign Verify, Inc"],"lon":-77.061119410484,"lat":38.905796561554,"matched":"1215 31ST ST NW, WASHINGTON, DC, 20007"},{"addr":"515 E SLAUGHTER LANE, #3318","city":"Austin","state":"TX","zip":"78744","n_payees":1,"n_payments":1,"total":638.5,"names":["Taylor, Jessica"],"lon":-97.778939178696,"lat":30.164213997965,"matched":"515 E SLAUGHTER LN, AUSTIN, TX, 78744"},{"addr":"6400 N. Lamar Blvd.","city":"Austin","state":"TX","zip":"78752","n_payees":1,"n_payments":1,"total":535.84,"names":["Lone Star Awards & Trophies"],"lon":-97.722788447014,"lat":30.331665486392,"matched":"6400 N LAMAR BLVD, AUSTIN, TX, 78752"},{"addr":"3825 Lake Austin Blvd","city":"Austin","state":"TX","zip":"78703","n_payees":1,"n_payments":2,"total":55.0,"names":["Mozarts"],"lon":-97.783807045237,"lat":30.294951556441,"matched":"3825 LAKE AUSTIN BLVD, AUSTIN, TX, 78703"},{"addr":"6109 Felix Ave","city":"Austin","state":"TX","zip":"78741","n_payees":1,"n_payments":2,"total":675.0,"names":["Castro, Jose"],"lon":-97.699702317502,"lat":30.236642165227,"matched":"6109 FELIX AVE, AUSTIN, TX, 78741"},{"addr":"2201 Manor Rd,","city":"Austin","state":"TX","zip":"78722","n_payees":1,"n_payments":2,"total":1561.02,"names":["Mi Madre's"],"lon":-97.719028413073,"lat":30.284231691143,"matched":"2201 MANOR RD, AUSTIN, TX, 78722"},{"addr":"3838 Oak Lawn Avenue Ste 400","city":"Dallas","state":"TX","zip":"75219","n_payees":1,"n_payments":2,"total":10000.0,"names":["Morgan Meyer Campaign"],"lon":-96.802237815596,"lat":32.81527672455,"matched":"3838 OAK LAWN AVE, DALLAS, TX, 75219"},{"addr":"1612 Melissa Oaks Ln","city":"Austin","state":"TX","zip":"78744","n_payees":5,"n_payments":27,"total":68105.9,"names":["Habla Con Orgullo","Saldana PR","Saldana Public Relations","Saldana, Paul","Salda\u00f1a Public Relations"],"lon":-97.783436250907,"lat":30.160326531164,"matched":"1612 MELISSA OAKS LN, AUSTIN, TX, 78744"},{"addr":"1260 S Business IH 35","city":"New Braunfels","state":"TX","zip":"78130","n_payees":2,"n_payments":5,"total":13039.74,"names":["Direct Texas","Direct-TX Carolyn Lehmann"],"lon":-98.095099929114,"lat":29.704343092618,"matched":"1260 I- 35 BUS, NEW BRAUNFELS, TX, 78130"},{"addr":"2305 E. 7th","city":"Austin","state":"TX","zip":"78702","n_payees":1,"n_payments":1,"total":136.8,"names":["Joes Bakery"],"lon":-97.716348901588,"lat":30.261265311496,"matched":"2305 E 7TH ST, AUSTIN, TX, 78702"},{"addr":"4301 W. William Cannon Dr., Ste. A-200","city":"Austin","state":"TX","zip":"78749","n_payees":1,"n_payments":4,"total":533.34,"names":["WB Liquors - 42"],"lon":-97.838676613988,"lat":30.221996528106,"matched":"4301 W WILLIAM CANNON DR, AUSTIN, TX, 78749"},{"addr":"3575 Far West Blvd","city":"Austin","state":"TX","zip":"78755","n_payees":1,"n_payments":2,"total":118.0,"names":["United States Post Office"],"lon":-97.75430295937,"lat":30.353834698259,"matched":"3575 FAR WEST BLVD, AUSTIN, TX, 78731"},{"addr":"3900 Old Cheney Rd, Suite 201","city":"Lincoln","state":"NE","zip":"68516","n_payees":1,"n_payments":4,"total":6982.2,"names":["Thumos, LLC"],"lon":-96.66465419732,"lat":40.755427891569,"matched":"3900 OLD CHENEY RD, LINCOLN, NE, 68516"},{"addr":"3727 N Ventura Dr,","city":"Arlington Heights","state":"IL","zip":"60004","n_payees":3,"n_payments":8,"total":3810.69,"names":["SMV Prepaid","SVM Cards","SVM Prepaid"],"lon":-88.003444853909,"lat":42.143595826393,"matched":"3727 N VENTURA DR, ARLINGTON HEIGHTS, IL, 60004"},{"addr":"28 Liberty Street","city":"New York","state":"NY","zip":"10005","n_payees":1,"n_payments":2,"total":200.0,"names":["Letitia James Campaign"],"lon":-74.008560263365,"lat":40.707873554078,"matched":"28 LIBERTY ST, NEW YORK, NY, 10005"},{"addr":"25 Pearl St","city":"Portland","state":"ME","zip":"04101","n_payees":2,"n_payments":2,"total":200.0,"names":["Nordstrom","Torchys Tacos"],"lon":-70.251912768247,"lat":43.657469524463,"matched":"25 PEARL ST, PORTLAND, ME, 04101"},{"addr":"603 W. 8th St.","city":"Austin","state":"TX","zip":"78701","n_payees":2,"n_payments":4,"total":500.0,"names":["Garcia, Berenice","Tinajero, Teresa"],"lon":-97.747844815614,"lat":30.271455782892,"matched":"603 W 8TH ST, AUSTIN, TX, 78701"},{"addr":"12100 Metric Blvd, #1918","city":"Austin","state":"TX","zip":"78758","n_payees":1,"n_payments":1,"total":242.27,"names":["Hughes, Amparo"],"lon":-97.700335907254,"lat":30.403244605258,"matched":"12100 METRIC BLVD, AUSTIN, TX, 78758"},{"addr":"1150 River Ridge Parkway","city":"San Marcos","state":"TX","zip":"78666","n_payees":1,"n_payments":8,"total":2518.0,"names":["Fortezz, Giovanni"],"lon":-97.900999240009,"lat":29.904247182781,"matched":"1150 RIVER RIDGE PKWY, SAN MARCOS, TX, 78666"},{"addr":"1140 19th street NW, 925","city":"Washington","state":"DC","zip":"20036","n_payees":1,"n_payments":2,"total":50000.0,"names":["EMC Research"],"lon":-77.043527329125,"lat":38.904536206409,"matched":"1140 19TH ST NW, WASHINGTON, DC, 20036"},{"addr":"1805 Miles Ave","city":"Austin","state":"TX","zip":"78745","n_payees":4,"n_payments":15,"total":10848.89,"names":["Austin Tejano Democrats","Faraon Consulting","State Tejano Democrats","Travis County Tejano Dems"],"lon":-97.801335388381,"lat":30.204811607778,"matched":"1805 MILES AVE, AUSTIN, TX, 78745"},{"addr":"9507 Mankay Lane","city":"Houston","state":"TX","zip":"77070","n_payees":1,"n_payments":3,"total":270.0,"names":["Davis, Jordan"],"lon":-95.562777542671,"lat":29.955001167864,"matched":"9507 MANKAY LN, HOUSTON, TX, 77070"},{"addr":"14455 North Hayden Rd., Suite 226","city":"Scottsdale","state":"AZ","zip":"85260","n_payees":1,"n_payments":7,"total":493.57,"names":["GoDaddy.com LLC"],"lon":-111.908308360912,"lat":33.617227269551,"matched":"14455 N HAYDEN RD, SCOTTSDALE, AZ, 85260"},{"addr":"2307 Lake Austin BLVD","city":"Austin","state":"TX","zip":"78703","n_payees":2,"n_payments":3,"total":700.0,"names":["Kerri, Lohmeier","Lohmeier, Kerri"],"lon":-97.772100954707,"lat":30.277753506497,"matched":"2307 LAKE AUSTIN BLVD, AUSTIN, TX, 78703"},{"addr":"7537 Cameron Road","city":"Austin","state":"TX","zip":"78752","n_payees":9,"n_payments":18,"total":505756.38,"names":["Acosta, Quinn","Austin Firefighters Assoc. PAC","Austin Firefighters Association","Austin Firefighters Association PAC","Austin Firefighters Public Safety Fund","Blythe, Aaron","Fierro, Amie","Rosshirt, Ryan","Wedlow, Tahre"],"lon":-97.688992995937,"lat":30.329966230764,"matched":"7537 CAMERON RD, AUSTIN, TX, 78752"},{"addr":"1701 UPLAND DRIVE, #20","city":"Houston","state":"TX","zip":"77043","n_payees":1,"n_payments":5,"total":4478.25,"names":["Westman, Jacqueline"],"lon":-95.576687842826,"lat":29.796524281412,"matched":"1701 UPLAND DR, HOUSTON, TX, 77043"},{"addr":"2141 East Broadway Rd.","city":"Tempe","state":"AZ","zip":"85282","n_payees":1,"n_payments":6,"total":3960.78,"names":["Paragon Payment Solutions"],"lon":-111.894627649203,"lat":33.407442583498,"matched":"2141 E BROADWAY RD, TEMPE, AZ, 85282"},{"addr":"1008 Faris St","city":"San Marcos","state":"TX","zip":"78666","n_payees":3,"n_payments":5,"total":5777.46,"names":["Hevares, Darren","Neaves, Darren","Nevares, Darren"],"lon":-97.948730066563,"lat":29.873318460689,"matched":"1008 FARRIS ST, SAN MARCOS, TX, 78666"},{"addr":"15955 La Cantera Pkwy","city":"San Antonio","state":"TX","zip":"78256","n_payees":4,"n_payments":13,"total":553.73,"names":["HARLAND CLARKE CHECK","HARLAND CLARKE CHECKS","Harland Clarke","Harland Clarke Check/ACC"],"lon":-98.61963497702,"lat":29.59390172889,"matched":"15955 LA CANTERA PKWY, SAN ANTONIO, TX, 78256"},{"addr":"610 E Stassney Ln Ste. C-1","city":"Austin","state":"TX","zip":"78745","n_payees":2,"n_payments":2,"total":70.28,"names":["Jimmy John's","Jimmy John?s"],"lon":-97.769954480684,"lat":30.201674418755,"matched":"610 E STASSNEY LN, AUSTIN, TX, 78745"},{"addr":"2211 N. First St.","city":"San Jose","state":"CA","zip":"95131","n_payees":1,"n_payments":2,"total":7.14,"names":["Avery"],"lon":-121.921678636217,"lat":37.377795110266,"matched":"2211 N 1ST ST, SAN JOSE, CA, 95131"},{"addr":"3412 Green Emerald Ter","city":"Austin","state":"TX","zip":"78739","n_payees":1,"n_payments":2,"total":400.0,"names":["Greater Austin Hispanic Chamber of Commerce Foundation"],"lon":-97.862684672363,"lat":30.161606062524,"matched":"3412 GREEN EMERALD TER, AUSTIN, TX, 78739"},{"addr":"1401 E. Rundberg Lane #83","city":"Austin","state":"TX","zip":"78753","n_payees":1,"n_payments":2,"total":200.0,"names":["Del Angel, Jaylene"],"lon":-97.678119289587,"lat":30.351955936689,"matched":"1401 E RUNDBERG LN, AUSTIN, TX, 78753"},{"addr":"9529 Willow Branch Way","city":"Crowley","state":"TX","zip":"76036","n_payees":1,"n_payments":4,"total":450.0,"names":["Alidina, Suha"],"lon":-97.400150106701,"lat":32.604560714983,"matched":"9529 WILLOW BRANCH WAY, CROWLEY, TX, 76036"},{"addr":"809 West 32nd Street","city":"Austin","state":"TX","zip":"78705","n_payees":1,"n_payments":1,"total":100.27,"names":["Tovo, Kathryne"],"lon":-97.743594419527,"lat":30.300514407867,"matched":"809 W 32ND ST, AUSTIN, TX, 78705"},{"addr":"4010 Avenue C, unit A","city":"Austin","state":"TX","zip":"78751","n_payees":1,"n_payments":5,"total":5879.5,"names":["Morrison, Alex"],"lon":-97.733737746355,"lat":30.304120403152,"matched":"4010 AVE C, AUSTIN, TX, 78751"},{"addr":"1215 31st Street NW, PO Box 3554","city":"Washington","state":"DC","zip":"20007","n_payees":3,"n_payments":5,"total":475.0,"names":["Campaign Verify","Campaign Verify, Inc","Campaign Verify, Inc."],"lon":-77.061119410484,"lat":38.905796561554,"matched":"1215 31ST ST NW, WASHINGTON, DC, 20007"},{"addr":"5434 Burnet Rd","city":"Austin","state":"TX","zip":"78756","n_payees":1,"n_payments":1,"total":1623.75,"names":["Gaona, Terry"],"lon":-97.739875061689,"lat":30.32913152356,"matched":"5434 BURNET RD, AUSTIN, TX, 78756"},{"addr":"6607 S IH 35 Frontage Rd","city":"Austin","state":"TX","zip":"78744","n_payees":1,"n_payments":9,"total":357.42,"names":["HEB"],"lon":-97.770386938747,"lat":30.189770701841,"matched":"6607 S I- 35 SVC RD, AUSTIN, TX, 78744"},{"addr":"2200 S. Pleasant Valley Road, Apt. 1015","city":"Austin","state":"TX","zip":"78741","n_payees":2,"n_payments":7,"total":1898.0,"names":["Hernandez, Gilbert","Pena, Aryel"],"lon":-97.725035686592,"lat":30.232028955515,"matched":"2200 S PLEASANT VALLEY RD, AUSTIN, TX, 78741"},{"addr":"4117 Guadalupe St.","city":"Austin","state":"TX","zip":"78751","n_payees":1,"n_payments":2,"total":3591.27,"names":["Woodside Development, Inc."],"lon":-97.735540904891,"lat":30.306676510396,"matched":"4117 GUADALUPE ST, AUSTIN, TX, 78751"},{"addr":"2305 East 7th St.","city":"Austin","state":"TX","zip":"78702","n_payees":1,"n_payments":1,"total":153.0,"names":["Joe's Bakery"],"lon":-97.716348901588,"lat":30.261265311496,"matched":"2305 E 7TH ST, AUSTIN, TX, 78702"},{"addr":"7704 Roland Dr","city":"Mckinney","state":"TX","zip":"75070","n_payees":1,"n_payments":2,"total":300.0,"names":["Hafer, Robyn"],"lon":-96.717239059172,"lat":33.166087197487,"matched":"7704 ROLAND DR, MCKINNEY, TX, 75070"},{"addr":"12430 METRIC BLVD, #11306","city":"Austin","state":"TX","zip":"78758","n_payees":1,"n_payments":2,"total":51.65,"names":["Garcia, Guadalupe"],"lon":-97.691312566142,"lat":30.412321363071,"matched":"12430 METRIC BLVD, AUSTIN, TX, 78758"},{"addr":"121 W Wright Blvd","city":"Universal City","state":"TX","zip":"78148","n_payees":1,"n_payments":4,"total":3947.93,"names":["Summit Printing Sale"],"lon":-98.289751792919,"lat":29.546197519652,"matched":"121 W WRIGHT BLVD, UNIVERSAL CITY, TX, 78148"},{"addr":"2210 Southwood Hills Dr","city":"Taylor","state":"TX","zip":"76574","n_payees":1,"n_payments":1,"total":250.0,"names":["Greg Redden Campaign"],"lon":-97.39048429441,"lat":30.55761784349,"matched":"2210 SOUTHWOOD HILLS DR, TAYLOR, TX, 76574"},{"addr":"4600 Elmont Dr- #1812","city":"Austin","state":"TX","zip":"78741","n_payees":2,"n_payments":12,"total":23404.64,"names":["Alberto, Vasquez","Vasquez, Alberto"],"lon":-97.717115862445,"lat":30.237546566588,"matched":"4600 ELMONT DR, AUSTIN, TX, 78741"},{"addr":"2528 Glen Springs Way","city":"Austin","state":"TX","zip":"78741","n_payees":1,"n_payments":6,"total":6334.0,"names":["Medina, Andrew"],"lon":-97.737791346176,"lat":30.228717760613,"matched":"2528 GLEN SPRINGS WAY, AUSTIN, TX, 78741"},{"addr":"706 Jetta Ct.","city":"Austin","state":"TX","zip":"78753","n_payees":1,"n_payments":7,"total":23240.32,"names":["Cascino, Joe"],"lon":-97.681821066001,"lat":30.388259894346,"matched":"706 JETTA CT, AUSTIN, TX, 78753"},{"addr":"2414 Exposition Blvd Ste D200","city":"Austin","state":"TX","zip":"78703","n_payees":1,"n_payments":1,"total":833.33,"names":["Stockdale Faimly Partnership LLC"],"lon":-97.76796601944,"lat":30.297271640197,"matched":"2414 EXPOSITION BLVD, AUSTIN, TX, 78703"},{"addr":"301 W 2nd Street","city":"Austin","state":"TX","zip":"78701","n_payees":3,"n_payments":4,"total":1030.0,"names":["Austin City Hall","City Of Austin","City of Austin"],"lon":-97.746667725764,"lat":30.264958774964,"matched":"301 W 2ND ST, AUSTIN, TX, 78701"},{"addr":"114 Linden St","city":"Austin","state":"TX","zip":"78702","n_payees":1,"n_payments":3,"total":1480.74,"names":["Lustre Pearl"],"lon":-97.710790618265,"lat":30.252504703883,"matched":"114 LINDEN ST, AUSTIN, TX, 78702"},{"addr":"2027 S Lamar Blvd","city":"Austin","state":"TX","zip":"78704","n_payees":1,"n_payments":2,"total":3332.39,"names":["Bouldin Acres"],"lon":-97.768562217159,"lat":30.248809513962,"matched":"2027 S LAMAR BLVD, AUSTIN, TX, 78704"},{"addr":"314 E Highland Mall Blvd, Ste 508","city":"Austin","state":"TX","zip":"78752","n_payees":1,"n_payments":2,"total":1428.0,"names":["Texas Democratic Party"],"lon":-97.711788000064,"lat":30.328620303098,"matched":"314 E HIGHLAND MALL BLVD, AUSTIN, TX, 78752"},{"addr":"16225 Impact Way, #1","city":"Pflugerville","state":"TX","zip":"78660","n_payees":1,"n_payments":2,"total":35200.0,"names":["Community Impact"],"lon":-97.590193769554,"lat":30.423005492237,"matched":"16225 IMPACT WAY, PFLUGERVILLE, TX, 78660"},{"addr":"1440 Beddington Park","city":"Nashville","state":"TN","zip":"37215","n_payees":4,"n_payments":35,"total":538890.99,"names":["CounterPoint Messaging, LLC","Counterpoint Messaging","Counterpoint Messaging LLC","Counterpoint Messaging, LLC"],"lon":-86.828743860066,"lat":36.056875092431,"matched":"1440 BEDDINGTON PARK, NASHVILLE, TN, 37215"},{"addr":"208 S. Akard St.","city":"Dallas","state":"TX","zip":"75202","n_payees":1,"n_payments":3,"total":562.55,"names":["AT&T"],"lon":-96.799211011104,"lat":32.779734047157,"matched":"208 S AKARD ST, DALLAS, TX, 75202"},{"addr":"807 Baylor St","city":"Austin","state":"TX","zip":"78703","n_payees":1,"n_payments":4,"total":740.0,"names":["Fotinakes, Arthur"],"lon":-97.754001096938,"lat":30.273748016707,"matched":"807 BAYLOR ST, AUSTIN, TX, 78703"},{"addr":"98 San Jacinto Blvd #510","city":"Austin","state":"TX","zip":"78701","n_payees":1,"n_payments":2,"total":10000.0,"names":["RECA Advancing Democracy PAC"],"lon":-97.742185346942,"lat":30.262654167287,"matched":"98 SAN JACINTO BLVD, AUSTIN, TX, 78701"},{"addr":"301 W. 2nd","city":"Austin","state":"TX","zip":"78701","n_payees":1,"n_payments":4,"total":2000.0,"names":["City of Austin"],"lon":-97.746667725764,"lat":30.264958774964,"matched":"301 W 2ND ST, AUSTIN, TX, 78701"},{"addr":"510 w 23rd St","city":"Austin","state":"TX","zip":"78705","n_payees":9,"n_payments":9,"total":4023.0,"names":["Bruner, Lily","Dalton, Maria","Early, Kiana","Frota, Clara","Gallegos, Alaya","Garcia, Lina","Lewis, Zach","Poet-Galvin, Maurice","Samfield, William"],"lon":-97.742908265314,"lat":30.286626266065,"matched":"510 W 23RD ST, AUSTIN, TX, 78705"},{"addr":"1812 Centre Creek Dr","city":"Austin","state":"TX","zip":"78754","n_payees":2,"n_payments":2,"total":10215.0,"names":["AFSCME Local 1624","Austinites for Equity"],"lon":-97.677208891999,"lat":30.336355470187,"matched":"1812 CENTRE CREEK DR, AUSTIN, TX, 78754"},{"addr":"122 C Street, NW S360","city":"Washington","state":"DC","zip":"20001","n_payees":4,"n_payments":6,"total":902.0,"names":["Nguyen, Nin","Nguyen, Nina","Nguyen, Ny","Samee, Hana"],"lon":-77.012520617212,"lat":38.893506918805,"matched":"122 C ST NW, WASHINGTON, DC, 20001"},{"addr":"2033 6th Ave Ste 1100","city":"Seattle","state":"WA","zip":"98121","n_payees":1,"n_payments":1,"total":22.1,"names":["Whitepages Inc"],"lon":-122.338765796899,"lat":47.614613217604,"matched":"2033 6TH AVE, SEATTLE, WA, 98121"},{"addr":"111 Rock Nettle Place","city":"Georgetown","state":"TX","zip":"78628","n_payees":1,"n_payments":5,"total":5296.5,"names":["Ricard, Joseph"],"lon":-97.789798597475,"lat":30.65698393976,"matched":"111 ROCK NETTLE PL, GEORGETOWN, TX, 78628"},{"addr":"2700 Post Oak Blvd., 21st Floor","city":"Houston","state":"TX","zip":"77056","n_payees":1,"n_payments":8,"total":110000.0,"names":["Human Age Digital"],"lon":-95.460753645904,"lat":29.739344579491,"matched":"2700 POST OAK BLVD, HOUSTON, TX, 77056"},{"addr":"6801 Jester Wild Dr","city":"Austin","state":"TX","zip":"78750","n_payees":1,"n_payments":3,"total":825.0,"names":["Sarahan, Kate"],"lon":-97.790023241316,"lat":30.381757571959,"matched":"6801 JESTER WILD DR, AUSTIN, TX, 78750"},{"addr":"11150 Fairfax Blvd St 505, St 505","city":"Fairfax","state":"VA","zip":"22030","n_payees":1,"n_payments":1,"total":50875.0,"names":["Screen Strategies Media"],"lon":-77.33035261914,"lat":38.855484495381,"matched":"11150 FAIRFAX BLVD, FAIRFAX, VA, 22030"},{"addr":"10624 S. Eastern Ave., Suite A-1012","city":"Henderson","state":"NV","zip":"89052","n_payees":1,"n_payments":1,"total":1000.0,"names":["Friends of Michael Naft"],"lon":-115.104116229398,"lat":35.998756937098,"matched":"10624 S EASTERN AVE, HENDERSON, NV, 89052"},{"addr":"1807 W Slaughter Ln","city":"Austin","state":"TX","zip":"78748","n_payees":1,"n_payments":2,"total":857.06,"names":["DK Maria's Legendary Tex Mex"],"lon":-97.821539792117,"lat":30.173624460896,"matched":"1807 W SLAUGHTER LN, AUSTIN, TX, 78748"},{"addr":"9222 Burnet Rd Ste 101","city":"Austin","state":"TX","zip":"78758","n_payees":2,"n_payments":12,"total":151.27,"names":["FedEx Office & Print Shop","FedEx Office Print & Ship Center"],"lon":-97.725702301255,"lat":30.376543448823,"matched":"9222 BURNET RD, AUSTIN, TX, 78758"},{"addr":"600 Wilshire Blvd, #400","city":"Los Angeles","state":"CA","zip":"94103","n_payees":1,"n_payments":2,"total":329.98,"names":["EVITE, INC"],"lon":-118.256070798688,"lat":34.047956765033,"matched":"600 WILSHIRE BLVD, LOS ANGELES, CA, 90017"},{"addr":"1603 E 38th 1/2 St.","city":"Austin","state":"TX","zip":"78722","n_payees":1,"n_payments":2,"total":822.63,"names":["Austin Justice Coalition"],"lon":-97.714448999284,"lat":30.292126718725,"matched":"1603 E 38TH 1/2 ST, AUSTIN, TX, 78722"},{"addr":"730 Belvin St","city":"San Marcos","state":"TX","zip":"78666","n_payees":2,"n_payments":2,"total":5.9,"names":["Rose, Anna","Rose, Patrick"],"lon":-97.950195156854,"lat":29.880224521402,"matched":"730 BELVIN ST, SAN MARCOS, TX, 78666"},{"addr":"5150 Kensington Ct.","city":"Flower Mound","state":"TX","zip":"75022","n_payees":1,"n_payments":1,"total":5000.0,"names":["Ben Bumgarner Campaign"],"lon":-97.112346502765,"lat":33.034083524327,"matched":"5150 KENSINGTON CT, FLOWER MOUND, TX, 75022"},{"addr":"Co. 108 Wilmot Road Deerfield, IL 60015","city":"Deerfield","state":"IL","zip":"60015","n_payees":1,"n_payments":2,"total":23.42,"names":["Walgreens"],"lon":-87.867407200958,"lat":42.158254326874,"matched":"108 WILMOT RD, DEERFIELD, IL, 60015"},{"addr":"1106 Lavaca St, #200","city":"Austin","state":"TX","zip":"78701","n_payees":4,"n_payments":5,"total":1389.95,"names":["AUSTIN AFL-CIO COUNCIL","Austin AFL CIO","Austin AFL-CIO","Austin Central Labor Council of the AFL-CIO"],"lon":-97.743479885596,"lat":30.273545961726,"matched":"1106 LAVACA ST, AUSTIN, TX, 78701"},{"addr":"1201 San Jacinto St","city":"Austin","state":"TX","zip":"78701","n_payees":1,"n_payments":1,"total":1644.32,"names":["Capitol Gift Shop"],"lon":-97.738149714465,"lat":30.273242299719,"matched":"1201 SAN JACINTO BLVD, AUSTIN, TX, 78701"},{"addr":"4327 South 1st Street","city":"Austin","state":"TX","zip":"78715","n_payees":1,"n_payments":2,"total":263.78,"names":["South Austin Democrats"],"lon":-97.77189246185,"lat":30.22250417798,"matched":"4327 S 1ST ST, AUSTIN, TX, 78745"},{"addr":"1109 N. IH 35 #1502","city":"Austin","state":"TX","zip":"78702","n_payees":1,"n_payments":3,"total":20760.0,"names":["Z to A Research LLC"],"lon":-97.73234839626,"lat":30.270477778262,"matched":"1109 N I- 35 SVC RD, AUSTIN, TX, 78702"},{"addr":"303 Red River St, Austin, TX","city":"Austin","state":"TX","zip":"78701","n_payees":1,"n_payments":2,"total":221.04,"names":["Moonshine Grill"],"lon":-97.738115877655,"lat":30.26371003951,"matched":"303 RED RIVER ST, AUSTIN, TX, 78701"},{"addr":"2101 W. Anderson Ln, Apt 725,","city":"Austin","state":"TX","zip":"78757","n_payees":1,"n_payments":1,"total":60.0,"names":["Thompson, Alyssa"],"lon":-97.728036871257,"lat":30.354725014106,"matched":"2101 W ANDERSON LN, AUSTIN, TX, 78757"},{"addr":"5222 Burnet Rd","city":"Austin","state":"TX","zip":"78756","n_payees":1,"n_payments":2,"total":366.12,"names":["Chi Lantro"],"lon":-97.739584651274,"lat":30.324524092357,"matched":"5222 BURNET RD, AUSTIN, TX, 78756"},{"addr":"2609 Rosewood Ave, 4901","city":"Austin","state":"TX","zip":"78702","n_payees":2,"n_payments":4,"total":600.0,"names":["Pierott, Alice","Scroggins, David"],"lon":-97.706272595042,"lat":30.27239628421,"matched":"2609 ROSEWOOD AVE, AUSTIN, TX, 78702"},{"addr":"3500 Jefferson Street","city":"Austin","state":"TX","zip":"78731","n_payees":1,"n_payments":1,"total":51.95,"names":["Quick Gifts"],"lon":-97.751648665934,"lat":30.307843157774,"matched":"3500 JEFFERSON ST, AUSTIN, TX, 78731"},{"addr":"675 Ponce de Leon Ave NE Suite 5000","city":"Atlanta","state":"GA","zip":"30308","n_payees":2,"n_payments":10,"total":1388.86,"names":["Mail Chimp","Mailchimp"],"lon":-84.365182750081,"lat":33.773272810809,"matched":"675 PONCE DE LEON AVE NE, ATLANTA, GA, 30308"},{"addr":"8225 Cross Park Dr. #142002","city":"Austin","state":"TX","zip":"78710","n_payees":1,"n_payments":2,"total":8514.32,"names":["US Postmaster"],"lon":-97.668253159982,"lat":30.334045020904,"matched":"8225 CROSS PARK DR, AUSTIN, TX, 78710"},{"addr":"1916 Robbins","city":"Austin","state":"TX","zip":"78705","n_payees":1,"n_payments":1,"total":127.44,"names":["Ramos, Raul"],"lon":-97.749532566872,"lat":30.284186929411,"matched":"1916 ROBBINS PL, AUSTIN, TX, 78705"},{"addr":"2011 San Antonio Street, #1420","city":"Austin","state":"TX","zip":"78705","n_payees":2,"n_payments":3,"total":437.0,"names":["Lalmohammed, Kashish","Lalmohammed, Kashish?"],"lon":-97.743039012524,"lat":30.283090051973,"matched":"2011 SAN ANTONIO ST, AUSTIN, TX, 78705"},{"addr":"7310 Menchaca Road","city":"Austin","state":"TX","zip":"78745","n_payees":1,"n_payments":2,"total":672.0,"names":["USPS"],"lon":-97.808025125059,"lat":30.199044132761,"matched":"7310 MANCHACA RD, AUSTIN, TX, 78745"},{"addr":"915 N Lamar Blvd","city":"Austin","state":"TX","zip":"78703","n_payees":1,"n_payments":5,"total":960.22,"names":["Fresas"],"lon":-97.752622417128,"lat":30.274120067566,"matched":"915 N LAMAR BLVD, AUSTIN, TX, 78703"},{"addr":"5817 Wilcab Road","city":"Austin","state":"TX","zip":"78721","n_payees":1,"n_payments":1,"total":350.0,"names":["Austin Police Association"],"lon":-97.674660008792,"lat":30.273053588084,"matched":"5817 WILCAB RD, AUSTIN, TX, 78721"},{"addr":"9620 Covey Ridge Ln","city":"Austin","state":"TX","zip":"78758","n_payees":3,"n_payments":20,"total":40073.79,"names":["Savoie , Seneca","Savoie, Seneca","Seneca, Savoie"],"lon":-97.697902983698,"lat":30.367755898253,"matched":"9620 COVY RIDGE LN, AUSTIN, TX, 78758"},{"addr":"5658 Sugar Hill Dr","city":"Houston","state":"TX","zip":"77056","n_payees":2,"n_payments":2,"total":558.37,"names":["Stevenson, Jennifer","Stevenson, Mark"],"lon":-95.476446066894,"lat":29.756932102931,"matched":"5658 SUGAR HILL DR, HOUSTON, TX, 77056"},{"addr":"2311 Willow St","city":"Austin","state":"TX","zip":"78702","n_payees":1,"n_payments":2,"total":900.0,"names":["Jose Velasquez Campaign"],"lon":-97.719606224027,"lat":30.254279836508,"matched":"2311 WILLOW ST, AUSTIN, TX, 78702"},{"addr":"907 W 5th Street, #101","city":"Austin","state":"TX","zip":"78703","n_payees":1,"n_payments":2,"total":60.6,"names":["Office Depot"],"lon":-97.753327110128,"lat":30.269738295045,"matched":"907 W 5TH ST, AUSTIN, TX, 78703"},{"addr":"3507 North Lamar Blvd.","city":"Austin","state":"TX","zip":"78705","n_payees":1,"n_payments":2,"total":206.16,"names":["USPS"],"lon":-97.743739470119,"lat":30.304095771716,"matched":"3507 N LAMAR BLVD, AUSTIN, TX, 78705"},{"addr":"3507 N. Lamar Blvd.","city":"Austin","state":"TX","zip":"78705","n_payees":2,"n_payments":16,"total":2782.8,"names":["USPS","United States Postal Service"],"lon":-97.743739470119,"lat":30.304095771716,"matched":"3507 N LAMAR BLVD, AUSTIN, TX, 78705"},{"addr":"1503 W 10th St","city":"Austin","state":"TX","zip":"78703","n_payees":2,"n_payments":5,"total":2383.73,"names":["Medrano, Lesson","Spearman, Joah"],"lon":-97.759420896098,"lat":30.278555105927,"matched":"1503 W 10TH ST, AUSTIN, TX, 78703"},{"addr":"11702 HILLTOP, APT 1133","city":"Austin","state":"TX","zip":"78753","n_payees":1,"n_payments":4,"total":568.17,"names":["Dragomanovich, Christopher"],"lon":-97.679636206737,"lat":30.384506613966,"matched":"11702 HILLTOP ST, AUSTIN, TX, 78753"},{"addr":"249 E. Ocean Blvd., #670","city":"Long Beach","state":"CA","zip":"90802","n_payees":1,"n_payments":1,"total":250.0,"names":["Stacy Taylor for MWDOC-4 Director 2020"],"lon":-118.189705285266,"lat":33.766999632493,"matched":"249 E OCEAN BLVD, LONG BEACH, CA, 90802"},{"addr":"105 N College Ave","city":"West","state":"TX","zip":"76691","n_payees":1,"n_payments":1,"total":28.56,"names":["Shell Oil - West, TX"],"lon":-97.09918526309,"lat":31.803050701177,"matched":"105 N COLLEGE AVE, WEST, TX, 76691"},{"addr":"3218 North IH 35","city":"Austin","state":"TX","zip":"78722","n_payees":1,"n_payments":1,"total":108.25,"names":["Worley"],"lon":-97.7233452812,"lat":30.289579653226,"matched":"3218 N I- 35 SVC RD, AUSTIN, TX, 78705"},{"addr":"6000 Lonesome Valley Trail","city":"Austin","state":"TX","zip":"78731","n_payees":3,"n_payments":62,"total":168614.48,"names":["Hernandez, Laura","Laura Hernandez Consulting LLC","Laura, Hernandez"],"lon":-97.77375925532,"lat":30.347234167826,"matched":"6000 LONESOME VALLEY TRL, AUSTIN, TX, 78731"},{"addr":"7537 Cameron Rd.","city":"Austin","state":"TX","zip":"78752","n_payees":1,"n_payments":10,"total":139705.46,"names":["Collective Campaigns"],"lon":-97.688992995937,"lat":30.329966230764,"matched":"7537 CAMERON RD, AUSTIN, TX, 78752"},{"addr":"675 Ponce De Leon Ave NE E178","city":"Atlanta","state":"GA","zip":"30308","n_payees":1,"n_payments":3,"total":164.13,"names":["Mailchimp"],"lon":-84.365182750081,"lat":33.773272810809,"matched":"675 PONCE DE LEON AVE NE, ATLANTA, GA, 30308"},{"addr":"1400 E 38th 1/2 St","city":"Austin","state":"TX","zip":"78722","n_payees":3,"n_payments":4,"total":4575.48,"names":["Cherrywood Coffee","Cherrywood Coffee House","Cherrywood Coffeehouse"],"lon":-97.716333036795,"lat":30.293268572376,"matched":"1400 E 38TH 1/2 ST, AUSTIN, TX, 78722"},{"addr":"10307 Tildon Ave","city":"Austin","state":"TX","zip":"78754","n_payees":1,"n_payments":1,"total":100.0,"names":["Allegria Catering & Fiestas"],"lon":-97.66320214441,"lat":30.356295800137,"matched":"10307 TILDON AVE, AUSTIN, TX, 78754"},{"addr":"8604 Winter Haven Drive","city":"Austin","state":"TX","zip":"78747","n_payees":2,"n_payments":8,"total":4000.0,"names":["Ireland, Shaun","Nine Flags, LLC"],"lon":-97.739706748391,"lat":30.151608599243,"matched":"8604 WINTER HAVEN DR, AUSTIN, TX, 78747"},{"addr":"100 West Dean Keeton St.","city":"Austin","state":"TX","zip":"78713","n_payees":1,"n_payments":4,"total":400.0,"names":["University Democrats"],"lon":-97.738050734596,"lat":30.28961945536,"matched":"100 W DEAN KEETON ST, AUSTIN, TX, 78712"},{"addr":"809 E. 6th Str.","city":"Austin","state":"TX","zip":"78702","n_payees":1,"n_payments":5,"total":13916.08,"names":["Cajas Digital"],"lon":-97.734122819899,"lat":30.265540559648,"matched":"809 E 6TH ST, AUSTIN, TX, 78702"},{"addr":"6605 Betty Cook Dr.","city":"Austin","state":"TX","zip":"78723","n_payees":1,"n_payments":1,"total":22.14,"names":["Cordero, Adriana"],"lon":-97.673211415651,"lat":30.312108046867,"matched":"6605 BETTY COOK DR, AUSTIN, TX, 78723"},{"addr":"440 Terry Ave","city":"Seattle","state":"WA","zip":"98109","n_payees":1,"n_payments":2,"total":91.28,"names":["Amazon LLC"],"lon":-122.337062842272,"lat":47.622524160618,"matched":"440 TERRY AVE N, SEATTLE, WA, 98109"},{"addr":"1606 Headway Cir","city":"Austin","state":"TX","zip":"78754","n_payees":2,"n_payments":3,"total":9400.14,"names":["American Printing and Mailing","Integ"],"lon":-97.682928215423,"lat":30.334020638988,"matched":"1606 HEADWAY CIR, AUSTIN, TX, 78754"},{"addr":"116 Pocahontas Lane","city":"Elysburg","state":"PA","zip":"17824","n_payees":1,"n_payments":1,"total":20.0,"names":["Schu, Kimberly A"],"lon":-76.563341568048,"lat":40.867333080459,"matched":"116 POCAHONTAS LN, ELYSBURG, PA, 17824"},{"addr":"2200 Nuences St, Unit 1102","city":"Austin","state":"TX","zip":"78705","n_payees":1,"n_payments":3,"total":420.0,"names":["Gong, Nathan"],"lon":-97.744002803421,"lat":30.285237485614,"matched":"2200 NUECES ST, AUSTIN, TX, 78705"},{"addr":"5400 Tipton Dr","city":"Austin","state":"TX","zip":"78723","n_payees":1,"n_payments":3,"total":272.0,"names":["G &S Printing"],"lon":-97.679493198609,"lat":30.298367092549,"matched":"5400 TIPTON DR, AUSTIN, TX, 78723"},{"addr":"124 W 8th St Ste 116","city":"Austin","state":"TX","zip":"78701","n_payees":1,"n_payments":2,"total":1000.0,"names":["City of Austin"],"lon":-97.74244299147,"lat":30.270055698585,"matched":"124 W 8TH ST, AUSTIN, TX, 78701"},{"addr":"11002 Point Clear Ct.","city":"Austin","state":"TX","zip":"78747","n_payees":1,"n_payments":1,"total":1000.0,"names":["Wick, Jim"],"lon":-97.791614586467,"lat":30.136287227129,"matched":"11002 POINT CLEAR CT, AUSTIN, TX, 78747"},{"addr":"710 E Ben White Blvd","city":"Austin","state":"TX","zip":"78704","n_payees":3,"n_payments":4,"total":133.27,"names":["Murphy Fuels","Wal-Mart","Walmart"],"lon":-97.756045113061,"lat":30.219373043292,"matched":"710 E BEN WHITE BLVD, AUSTIN, TX, 78704"},{"addr":"9828 Great Hills Trl Ste 600","city":"Austin","state":"TX","zip":"78759","n_payees":1,"n_payments":1,"total":15.14,"names":["Trudy's Hallmark Shop"],"lon":-97.748913323363,"lat":30.394296762064,"matched":"9828 GREAT HILLS TRL, AUSTIN, TX, 78759"},{"addr":"1400 Arcadia Ave","city":"Austin","state":"TX","zip":"78757","n_payees":1,"n_payments":4,"total":275.0,"names":["Ramos, Jennifer"],"lon":-97.729908246122,"lat":30.335139278984,"matched":"1400 ARCADIA AVE, AUSTIN, TX, 78757"},{"addr":"1915 Wells Branch Pkwy, Apt 303","city":"Austin","state":"TX","zip":"78728","n_payees":2,"n_payments":4,"total":930.0,"names":["Garcia, Marcos","Sanchez, Edna"],"lon":-97.680381777043,"lat":30.43463311157,"matched":"1915 WELLS BRANCH PKWY, AUSTIN, TX, 78728"},{"addr":"1311 E. 6th St., #B","city":"Austin","state":"TX","zip":"78702","n_payees":1,"n_payments":1,"total":50.0,"names":["Travis County Democratic Party"],"lon":-97.729400097899,"lat":30.263940153587,"matched":"1311 E 6TH ST, AUSTIN, TX, 78702"},{"addr":"156 2nd Street","city":"San Francisco","state":"CA","zip":"94105","n_payees":1,"n_payments":2,"total":2808.0,"names":["www.bannersnack.com"],"lon":-122.39899859441,"lat":37.787290961166,"matched":"156 2ND ST, SAN FRANCISCO, CA, 94105"},{"addr":"609 Delmar Ave","city":"Austin","state":"TX","zip":"78752","n_payees":1,"n_payments":3,"total":4501.15,"names":["Rodriguez, Wendy"],"lon":-97.704191983725,"lat":30.337119447171,"matched":"609 DELMAR AVE, AUSTIN, TX, 78752"},{"addr":"11525a stonehollow dr #100","city":"Austin","state":"TX","zip":"78758","n_payees":2,"n_payments":2,"total":515.27,"names":["Build a sign","Build sign"],"lon":-97.707359861779,"lat":30.395048869061,"matched":"11525A STONEHOLLOW DR, AUSTIN, TX, 78758"},{"addr":"125 N Mary Ave, Space 82","city":"Sunnyvale","state":"CA","zip":"94086","n_payees":1,"n_payments":1,"total":250.0,"names":["Veach, Jonathan"],"lon":-122.04410158108,"lat":37.385362234304,"matched":"125 N MARY AVE, SUNNYVALE, CA, 94086"},{"addr":"1401 E Rundberg Ln, Trlr 83","city":"Austin","state":"TX","zip":"78753","n_payees":1,"n_payments":2,"total":275.0,"names":["Del Angel, Jaylene"],"lon":-97.678119289587,"lat":30.351955936689,"matched":"1401 E RUNDBERG LN, AUSTIN, TX, 78753"},{"addr":"12250 Research Blvd","city":"Austin","state":"TX","zip":"78759","n_payees":1,"n_payments":5,"total":478.35,"names":["Academy"],"lon":-97.754819874193,"lat":30.426505481112,"matched":"12250 RESEARCH BLVD, AUSTIN, TX, 78759"},{"addr":"5445 Ameda Road, Suite 307","city":"Houston","state":"TX","zip":"77004","n_payees":1,"n_payments":2,"total":6000.0,"names":["West, Royce"],"lon":-95.37921177697,"lat":29.721278580671,"matched":"5445 ALMEDA RD, HOUSTON, TX, 77004"},{"addr":"500 Westover Dr, #92215","city":"Sandford","state":"NC","zip":"27330","n_payees":1,"n_payments":2,"total":5000.0,"names":["STERLING DATA CO"],"lon":-79.206405098153,"lat":35.461686586941,"matched":"500 WESTOVER DR, SANFORD, NC, 27330"},{"addr":"1001 Connecticut Ave NW Suite 1020","city":"Washington","state":"DC","zip":"20036","n_payees":1,"n_payments":2,"total":137.48,"names":["Greater ATX -NWPC"],"lon":-77.039370579578,"lat":38.902576509375,"matched":"1001 CONNECTICUT AVE NW, WASHINGTON, DC, 20036"},{"addr":"111 W. Houston St","city":"San Antonio","state":"TX","zip":"78201","n_payees":1,"n_payments":1,"total":15.0,"names":["Frost Bank"],"lon":-98.49390282001,"lat":29.42649131213,"matched":"111 W HOUSTON ST, SAN ANTONIO, TX, 78205"},{"addr":"7101 State Hwy 71 W","city":"Austin","state":"TX","zip":"78735","n_payees":1,"n_payments":1,"total":23.2,"names":["Jim's Restaurants"],"lon":-97.877667622332,"lat":30.236157263952,"matched":"7101 W HWY 71, AUSTIN, TX, 78735"},{"addr":"400 North Saint Paul Street, Suite 920","city":"Dallas","state":"TX","zip":"75201","n_payees":1,"n_payments":2,"total":388.0,"names":["HighLevel Agency"],"lon":-96.797540669083,"lat":32.783934284304,"matched":"400 N ST PAUL ST, DALLAS, TX, 75201"},{"addr":"600 W. 28th St, Suite 202","city":"Austin","state":"TX","zip":"78705","n_payees":1,"n_payments":11,"total":12750.0,"names":["Clean Water Action"],"lon":-97.742690569316,"lat":30.293426208121,"matched":"600 W 28TH ST, AUSTIN, TX, 78705"},{"addr":"13236 Humphrey Dr","city":"Austin","state":"TX","zip":"78729","n_payees":1,"n_payments":1,"total":325.0,"names":["Sanchez, Rebecca"],"lon":-97.763218202381,"lat":30.454165730611,"matched":"13236 HUMPHREY DR, AUSTIN, TX, 78729"},{"addr":"1018 W Lynwood Ave","city":"San Antonio","state":"TX","zip":"78201","n_payees":1,"n_payments":1,"total":100.0,"names":["Hackney, Aaron"],"lon":-98.510644221292,"lat":29.46341767365,"matched":"1018 W LYNWOOD AVE, SAN ANTONIO, TX, 78201"},{"addr":"611 Zimmermans Hollow Rd","city":"Sunbury","state":"PA","zip":"17801","n_payees":1,"n_payments":1,"total":50.0,"names":["Wary, Andrea"],"lon":-76.705955138468,"lat":40.880443180102,"matched":"611 ZIMMERMANS HOLLOW RD, SUNBURY, PA, 17801"},{"addr":"8905 Panhandle","city":"Austin","state":"TX","zip":"78747","n_payees":1,"n_payments":1,"total":1362.8,"names":["Stoller, Brian"],"lon":-97.756965486055,"lat":30.15416363073,"matched":"8905 PANHANDLE DR, AUSTIN, TX, 78747"},{"addr":"5400 Freidrich Ln. , #140","city":"Austin","state":"TX","zip":"78744","n_payees":1,"n_payments":1,"total":66.43,"names":["Perez, Mitzi"],"lon":-97.755777662092,"lat":30.201031167644,"matched":"5400 FREIDRICH LN, AUSTIN, TX, 78744"},{"addr":"1300 Chicon St., Unit A","city":"Austin","state":"TX","zip":"78702","n_payees":1,"n_payments":1,"total":250.0,"names":["Jambussi, Iman"],"lon":-97.720177108796,"lat":30.274823184422,"matched":"1300 CHICON ST, AUSTIN, TX, 78702"},{"addr":"1905 Aldrich St #125","city":"Austin","state":"TX","zip":"78723","n_payees":1,"n_payments":1,"total":68.3,"names":["Veracruz All Natural"],"lon":-97.705305545453,"lat":30.298226614307,"matched":"1905 ALDRICH ST, AUSTIN, TX, 78723"},{"addr":"1318 Sunland Park Drive","city":"Frisco","state":"TX","zip":"75033","n_payees":1,"n_payments":2,"total":720.0,"names":["Krembs, Minami"],"lon":-96.880268158434,"lat":33.172485488178,"matched":"1318 SUNLAND PARK DR, FRISCO, TX, 75033"},{"addr":"2501 Manor Road, Apartment 310","city":"Austin","state":"TX","zip":"78722","n_payees":2,"n_payments":11,"total":9068.74,"names":["Clemmon, Jeffrey","Clemmons, Jeffrey"],"lon":-97.716272806873,"lat":30.284692296746,"matched":"2501 MANOR RD, AUSTIN, TX, 78722"},{"addr":"8301 Santa Monica Blvd","city":"West Hollywood","state":"CA","zip":"90069","n_payees":1,"n_payments":1,"total":40.68,"names":["Joey's Cafe"],"lon":-118.374215659972,"lat":34.090542998791,"matched":"8301 SANTA MONICA BLVD, WEST HOLLYWOOD, CA, 90069"},{"addr":"8801 S Congress","city":"Austin","state":"TX","zip":"78745","n_payees":1,"n_payments":2,"total":14.8,"names":["HEB Food & Drug"],"lon":-97.787850397045,"lat":30.164860249272,"matched":"8801 CONGRESS AVE S, AUSTIN, TX, 78745"},{"addr":"95 Third St 2nd Fl","city":"San Francisco","state":"CA","zip":"94103","n_payees":1,"n_payments":1,"total":29.28,"names":["Eventbrite"],"lon":-122.402068984961,"lat":37.786365742578,"matched":"95 3RD ST, SAN FRANCISCO, CA, 94103"},{"addr":"199 Jarbridge Drive","city":"Kyle","state":"TX","zip":"78640","n_payees":1,"n_payments":1,"total":22.14,"names":["Salvador, Daphne"],"lon":-97.88581092924,"lat":29.985473863359,"matched":"199 JARBRIDGE DR, KYLE, TX, 78640"},{"addr":"1901 E. Cesar Chavez","city":"Austin","state":"TX","zip":"78702","n_payees":1,"n_payments":1,"total":80.4,"names":["Mr Natural"],"lon":-97.724575980929,"lat":30.257055747916,"matched":"1901 E CESAR CHAVEZ ST, AUSTIN, TX, 78702"},{"addr":"14455 N Hayden Rd, Ste 219","city":"Scottsdale","state":"AZ","zip":"85260","n_payees":1,"n_payments":7,"total":387.28,"names":["Godaddy"],"lon":-111.908308360912,"lat":33.617227269551,"matched":"14455 N HAYDEN RD, SCOTTSDALE, AZ, 85260"},{"addr":"10001 Club Creek Dr, Apt 131","city":"Houston","state":"TX","zip":"77036","n_payees":1,"n_payments":6,"total":2623.13,"names":["Martinez, Bryan"],"lon":-95.551552496969,"lat":29.684008809118,"matched":"10001 CLUB CREEK DR, HOUSTON, TX, 77036"},{"addr":"708 Mendocino Lane","city":"Austin","state":"TX","zip":"78737","n_payees":1,"n_payments":1,"total":450.0,"names":["Kelly, Wenda"],"lon":-97.987634912736,"lat":30.185889748572,"matched":"708 MENDOCINO LN, AUSTIN, TX, 78737"},{"addr":"1810 E 12th St","city":"Austin","state":"TX","zip":"78702","n_payees":1,"n_payments":1,"total":42.0,"names":["Full Circle Bar"],"lon":-97.72074009567,"lat":30.273732367603,"matched":"1810 E 12TH ST, AUSTIN, TX, 78702"},{"addr":"11011 Research Blvd, #310","city":"Austin","state":"TX","zip":"78759","n_payees":1,"n_payments":1,"total":74.04,"names":["Tiff's Treats"],"lon":-97.745090239943,"lat":30.403364389551,"matched":"11011 RESEARCH BLVD, AUSTIN, TX, 78759"},{"addr":"13741 Harper St","city":"Santa Ana","state":"CA","zip":"92703","n_payees":1,"n_payments":1,"total":835.78,"names":["Scale to Win"],"lon":-117.914382400299,"lat":33.762923903769,"matched":"13741 HARPER ST, SANTA ANA, CA, 92703"},{"addr":"4600 ELMONT DR., 4600 Elmont Dr.","city":"Austin","state":"TX","zip":"78741","n_payees":1,"n_payments":1,"total":3229.5,"names":["Vasquez, Alberto"],"lon":-97.717115862445,"lat":30.237546566588,"matched":"4600 ELMONT DR, AUSTIN, TX, 78741"},{"addr":"420 Ninth Avenue","city":"New York","state":"NY","zip":"10001","n_payees":1,"n_payments":2,"total":863.84,"names":["B&H Photo"],"lon":-73.996272449882,"lat":40.753308871719,"matched":"420 9TH AVE, NEW YORK, NY, 10001"},{"addr":"217 E Bell","city":"Austin","state":"TX","zip":"78577","n_payees":1,"n_payments":1,"total":212.78,"names":["Barrera, Yaxsmin"],"lon":-98.181316340601,"lat":26.199170000072,"matched":"217 E BELL AVE, PHARR, TX, 78577"},{"addr":"2000 E 6th St","city":"Austin","state":"TX","zip":"78702","n_payees":1,"n_payments":1,"total":7.44,"names":["Cuvee Coffee"],"lon":-97.721159831434,"lat":30.261277567739,"matched":"2000 E 6TH ST, AUSTIN, TX, 78702"},{"addr":"4209 Airport Blvd","city":"Austin","state":"TX","zip":"78723","n_payees":1,"n_payments":2,"total":674.56,"names":["Conscious Cravings"],"lon":-97.708020074673,"lat":30.296254580985,"matched":"4209 AIRPORT BLVD, AUSTIN, TX, 78722"},{"addr":"300 La Vida Ct","city":"Irving","state":"TX","zip":"75062","n_payees":1,"n_payments":2,"total":345.11,"names":["Project Broadcast"],"lon":-96.937144712625,"lat":32.848787071734,"matched":"300 LA VIDA CT, IRVING, TX, 75062"},{"addr":"111 E 5th Ave","city":"Vancouver","state":"V5","zip":"","n_payees":1,"n_payments":2,"total":2532.4,"names":["Hootsuite"],"lon":-122.671597006942,"lat":45.624861405083,"matched":"111 E 5TH ST, VANCOUVER, WA, 98660"},{"addr":"6010 E. Riverside Dr","city":"Austin","state":"TX","zip":"78741","n_payees":1,"n_payments":1,"total":6.33,"names":["Dollar General"],"lon":-97.706609347472,"lat":30.226538583709,"matched":"6010 E RIVERSIDE DR, AUSTIN, TX, 78741"},{"addr":"5604 Southwest Pkwy, Apt 1633","city":"Austin","state":"TX","zip":"78735","n_payees":1,"n_payments":3,"total":3750.0,"names":["Iannaccone, Marisa"],"lon":-97.842677582137,"lat":30.24468021331,"matched":"5604 SOUTHWEST PKWY, AUSTIN, TX, 78735"},{"addr":"310 W 2nd St","city":"Austin","state":"TX","zip":"78701","n_payees":2,"n_payments":2,"total":1014.8,"names":["Enter, Venson","Jones, Tameca"],"lon":-97.746727058887,"lat":30.265094309399,"matched":"310 W 2ND ST, AUSTIN, TX, 78701"},{"addr":"6410 Ponca Dr","city":"Austin","state":"TX","zip":"78741","n_payees":1,"n_payments":1,"total":1500.0,"names":["Goss, Delwin"],"lon":-97.694142017413,"lat":30.236720080118,"matched":"6410 PONCA ST, AUSTIN, TX, 78741"},{"addr":"363 W Erie St., Ste 500W","city":"Chicago","state":"IL","zip":"60654","n_payees":1,"n_payments":2,"total":10.0,"names":["PrintWithMe, Inc."],"lon":-87.63817664564,"lat":41.893881848447,"matched":"363 W ERIE ST, CHICAGO, IL, 60654"},{"addr":"1112 Montezuma","city":"San Antonio","state":"TX","zip":"78207","n_payees":3,"n_payments":10,"total":65876.57,"names":["Azul","Azul - Consulting","Azul Consulting"],"lon":-98.526017575322,"lat":29.418858970372,"matched":"1112 MONTEZUMA ST, SAN ANTONIO, TX, 78207"},{"addr":"718 W 29th St","city":"Austin","state":"TX","zip":"78705","n_payees":1,"n_payments":4,"total":73.36,"names":["Breed & Company"],"lon":-97.744432609041,"lat":30.29626242589,"matched":"718 W 29TH ST, AUSTIN, TX, 78705"},{"addr":"13201 Ranch Road 620","city":"Austin","state":"TX","zip":"78717","n_payees":1,"n_payments":2,"total":130.44,"names":["Wal-Mart"],"lon":-97.791445544718,"lat":30.469684715446,"matched":"13201 RANCH RD 620 N, AUSTIN, TX, 78717"},{"addr":"401 Nelray Blvd #B","city":"Austin","state":"TX","zip":"78751","n_payees":2,"n_payments":8,"total":16000.0,"names":["Jules, Mandel","Mandel, Jules"],"lon":-97.724273266005,"lat":30.320935774004,"matched":"401 NELRAY BLVD, AUSTIN, TX, 78751"},{"addr":"3507 N Interstate 35","city":"Austin","state":"TX","zip":"78722","n_payees":1,"n_payments":2,"total":790.22,"names":["Cole Specialties"],"lon":-97.720537024234,"lat":30.292822670292,"matched":"3507 N I- 35 SVC RD, AUSTIN, TX, 78722"},{"addr":"9821 Colonnade Blvd.","city":"San Antonio","state":"TX","zip":"78230","n_payees":1,"n_payments":1,"total":302.62,"names":["The Westin"],"lon":-98.56456421904,"lat":29.534831192656,"matched":"9821 COLONNADE BLVD, SAN ANTONIO, TX, 78230"},{"addr":"1300 Crossing Place, #3831B","city":"Austin","state":"TX","zip":"78741","n_payees":1,"n_payments":1,"total":200.0,"names":["Kindle, Kion"],"lon":-97.713716575971,"lat":30.237846801278,"matched":"1300 CROSSING PL, AUSTIN, TX, 78741"},{"addr":"98 San Jacinto Blvd, Ste 510","city":"Austin","state":"TX","zip":"78701","n_payees":2,"n_payments":2,"total":12500.0,"names":["RECA Advancing Democracy PAC","The Real Estate Council of Austin Advancing Democracy PAC"],"lon":-97.742185346942,"lat":30.262654167287,"matched":"98 SAN JACINTO BLVD, AUSTIN, TX, 78701"},{"addr":"1505 Concordia Avenue","city":"Austin","state":"TX","zip":"78722","n_payees":1,"n_payments":1,"total":150.0,"names":["Schoenfield, Miriam"],"lon":-97.717051649717,"lat":30.291072765415,"matched":"1505 CONCORDIA AVE, AUSTIN, TX, 78722"},{"addr":"1311 E 6th Street, Suite B","city":"Austin","state":"TX","zip":"78702","n_payees":1,"n_payments":2,"total":5000.0,"names":["Travis County Democratic Party"],"lon":-97.729400097899,"lat":30.263940153587,"matched":"1311 E 6TH ST, AUSTIN, TX, 78702"},{"addr":"2819 Rio Grande St, #610","city":"Austin","state":"TX","zip":"78705","n_payees":1,"n_payments":1,"total":100.0,"names":["University Democrats PAC"],"lon":-97.744048754833,"lat":30.293855284358,"matched":"2819 RIO GRANDE ST, AUSTIN, TX, 78705"},{"addr":"1728 Timberwood dr","city":"Austin","state":"TX","zip":"78741","n_payees":1,"n_payments":1,"total":500.0,"names":["Cohen, Jessica"],"lon":-97.742534808973,"lat":30.227144728195,"matched":"1728 TIMBERWOOD DR, AUSTIN, TX, 78741"},{"addr":"1134 BROOKSWOOD AVENUE","city":"Austin","state":"TX","zip":"78721","n_payees":1,"n_payments":3,"total":5944.95,"names":["Serna, Valeria"],"lon":-97.688846424642,"lat":30.266113553721,"matched":"1134 BROOKSWOOD AVE, AUSTIN, TX, 78721"},{"addr":"242 W 2nd St","city":"Austin","state":"TX","zip":"78701","n_payees":3,"n_payments":3,"total":38.35,"names":["JO'S COFFEE","JO'S Coffee","Joe's Coffee"],"lon":-97.745957973003,"lat":30.26487367451,"matched":"242 W 2ND ST, AUSTIN, TX, 78701"},{"addr":"1010 E 6th St","city":"Austin","state":"TX","zip":"78702","n_payees":1,"n_payments":3,"total":492.0,"names":["Sixth Street Printing"],"lon":-97.732369804247,"lat":30.265088248772,"matched":"1010 E 6TH ST, AUSTIN, TX, 78702"},{"addr":"1629 K St NW, #300","city":"Washington","state":"DC","zip":"20006","n_payees":1,"n_payments":1,"total":5000.0,"names":["Civiclick"],"lon":-77.037135135575,"lat":38.90258550929,"matched":"1629 K ST NW, WASHINGTON, DC, 20006"},{"addr":"170 Barrett Pl","city":"Alexandria","state":"VA","zip":"22304","n_payees":1,"n_payments":1,"total":2500.0,"names":["Zelt Communications LLC"],"lon":-77.120656401174,"lat":38.810168070329,"matched":"170 BARRETT PL, ALEXANDRIA, VA, 22304"},{"addr":"1311B E 6th Street","city":"Austin","state":"TX","zip":"78701","n_payees":2,"n_payments":8,"total":1370.0,"names":["Austin Young Democrats","Travis County Democratic Party"],"lon":-97.729400097899,"lat":30.263940153587,"matched":"1311B E 6TH ST, AUSTIN, TX, 78702"},{"addr":"275 Wyman Street","city":"Waltham","state":"ME","zip":"02451","n_payees":1,"n_payments":3,"total":1103.84,"names":["Vistaprint"],"lon":-71.257405605919,"lat":42.405341307675,"matched":"275 WYMAN ST, WALTHAM, MA, 02451"},{"addr":"901 N Pitt St., Ste 325","city":"Alexandria","state":"VA","zip":"22314","n_payees":1,"n_payments":1,"total":63.83,"names":["Siteground Hosting"],"lon":-77.042708084608,"lat":38.813907866154,"matched":"901 N PITT ST, ALEXANDRIA, VA, 22314"},{"addr":"211 E 7th St Ste 620","city":"Austin","state":"TX","zip":"78701","n_payees":2,"n_payments":3,"total":15106.61,"names":["GOODMAN CAMPAIGN","GOODMAN CAMPAIGNS"],"lon":-97.740969795153,"lat":30.268505840697,"matched":"211 E 7TH ST, AUSTIN, TX, 78701"},{"addr":"1008 Faris Street, C","city":"San Marcos","state":"TX","zip":"78666","n_payees":1,"n_payments":2,"total":2666.02,"names":["Nevares, Darren"],"lon":-97.948730066563,"lat":29.873318460689,"matched":"1008 FARRIS ST, SAN MARCOS, TX, 78666"},{"addr":"620 W 51st St","city":"Austin","state":"TX","zip":"78751","n_payees":1,"n_payments":1,"total":424.43,"names":["Neal, Sarah"],"lon":-97.728717292875,"lat":30.317808004394,"matched":"620 W 51ST ST, AUSTIN, TX, 78751"},{"addr":"2711 Selma Ln","city":"Farmers Branch","state":"TX","zip":"75234","n_payees":1,"n_payments":1,"total":154.0,"names":["Wimpfheimer, Mary"],"lon":-96.886171907341,"lat":32.917580488083,"matched":"2711 SELMA LN, FARMERS BRANCH, TX, 75234"},{"addr":"446 Queen Anne Ct","city":"San Antonio","state":"TX","zip":"78209","n_payees":1,"n_payments":1,"total":300.0,"names":["Diaz, Ed"],"lon":-98.461986684006,"lat":29.460304191201,"matched":"446 QUEEN ANNE CT, SAN ANTONIO, TX, 78209"},{"addr":"347 Cypress Rd.","city":"Lockhart","state":"TX","zip":"78644","n_payees":1,"n_payments":1,"total":1000.0,"names":["Westmoreland, BJ"],"lon":-97.722863905918,"lat":29.915002772525,"matched":"347 CYPRESS RD, LOCKHART, TX, 78644"},{"addr":"354 Oyster Point Blvd South City","city":"San Francisco","state":"CA","zip":"94080","n_payees":1,"n_payments":7,"total":113.03,"names":["stripe.com"],"lon":-122.386095424997,"lat":37.662551399385,"matched":"354 OYSTER POINT BLVD, SOUTH SAN FRANCISCO, CA, 94080"},{"addr":"10375 Richmond Ave Suite 1625","city":"Houston","state":"TX","zip":"77042","n_payees":1,"n_payments":1,"total":10000.0,"names":["Adrian Garcia Campaign"],"lon":-95.555952669676,"lat":29.72756826653,"matched":"10375 RICHMOND AVE, HOUSTON, TX, 77042"},{"addr":"3001 Mannheim Rd","city":"Des Plaines","state":"IL","zip":"60018","n_payees":1,"n_payments":1,"total":210.97,"names":["Holiday Inn Express & Suites Chicago"],"lon":-87.88446109268,"lat":41.999780367815,"matched":"3001 MANNHEIM RD, DES PLAINES, IL, 60018"},{"addr":"1600 Ampitheatre Parkway","city":"Mountain View","state":"CA","zip":"94043","n_payees":1,"n_payments":3,"total":247.33,"names":["Google Fiber"],"lon":-122.083521249656,"lat":37.423120361623,"matched":"1600 AMPHITHEATRE PKWY, MOUNTAIN VIEW, CA, 94043"},{"addr":"Reservoir Place 1601 Trapelo Rd","city":"Waltham","state":"MA","zip":"02451","n_payees":1,"n_payments":1,"total":633.18,"names":["Constant Contact"],"lon":-71.259853853885,"lat":42.41606860408,"matched":"1601 TRAPELO RD, WALTHAM, MA, 02451"},{"addr":"1733 Dapplegrey Lane","city":"Austin","state":"TX","zip":"78727","n_payees":1,"n_payments":2,"total":720.0,"names":["Painaik, Elif"],"lon":-97.687230623433,"lat":30.414172623834,"matched":"1733 DAPPLEGREY LN, AUSTIN, TX, 78727"},{"addr":"2336 S Congress Ave","city":"Austin","state":"TX","zip":"78704","n_payees":1,"n_payments":2,"total":39.68,"names":["Freddo ATX"],"lon":-97.75312785714,"lat":30.239526228547,"matched":"2336 CONGRESS AVE S, AUSTIN, TX, 78704"},{"addr":"6104 OLD FREDERICKSBURG #8320","city":"Austin","state":"TX","zip":"78749","n_payees":2,"n_payments":4,"total":730.4,"names":["USPS","USPS PO 4804150126"],"lon":-97.850381380655,"lat":30.234186781013,"matched":"6104 OLD FREDERICKSBURG RD, AUSTIN, TX, 78749"},{"addr":"1111 West 24th St Suite 100","city":"Austin","state":"TX","zip":"78705","n_payees":5,"n_payments":5,"total":3270.49,"names":["Garcia, Aine","Iannaccone, Marisa","Medina, Andrew","Salvador, Jailene","Shaylee Gregory"],"lon":-97.74949613508,"lat":30.288257625294,"matched":"1111 W 24TH ST, AUSTIN, TX, 78705"},{"addr":"1081 Hidden Hills Drive","city":"Dripping Springs","state":"TX","zip":"78620","n_payees":1,"n_payments":1,"total":25.0,"names":["Carbajal Ravet, Teresa"],"lon":-98.0291789352,"lat":30.206919632705,"matched":"1081 HIDDEN HILLS DR, DRIPPING SPRINGS, TX, 78620"},{"addr":"2111 Grand Avenue Parkway","city":"Austin","state":"TX","zip":"78728","n_payees":1,"n_payments":2,"total":2752.8,"names":["Horizon Printing"],"lon":-97.670241330566,"lat":30.45630523518,"matched":"2111 GRAND AVENUE PKWY, AUSTIN, TX, 78728"},{"addr":"1030 Norwood Park Blvd","city":"Austin","state":"TX","zip":"78753","n_payees":3,"n_payments":4,"total":553.04,"names":["Wal-Mart Stores","WalMart","Walmart"],"lon":-97.692468582217,"lat":30.338492757829,"matched":"1030 NORWOOD PARK BLVD, AUSTIN, TX, 78753"},{"addr":"134 Grandview Place","city":"Alamo Heights","state":"TX","zip":"78209","n_payees":2,"n_payments":2,"total":50.0,"names":["Gomez, Jeffrey","Sinanovic, Sead"],"lon":-98.461336289195,"lat":29.476842410201,"matched":"134 GRANDVIEW PL, ALAMO HEIGHTS, TX, 78209"},{"addr":"1600 W Ben White Blvd","city":"Austin","state":"TX","zip":"78704","n_payees":1,"n_payments":1,"total":550.0,"names":["Two Men and a Truck"],"lon":-97.782821100559,"lat":30.228508793529,"matched":"1600 W BEN WHITE SVC RD, AUSTIN, TX, 78704"},{"addr":"9036 North Lamar , Apt. 201","city":"Austin","state":"TX","zip":"78753","n_payees":1,"n_payments":1,"total":44.29,"names":["Macias, Dora"],"lon":-97.698023498985,"lat":30.361358103177,"matched":"9036 N LAMAR BLVD, AUSTIN, TX, 78753"},{"addr":"1204 Greenwood Ave","city":"Austin","state":"TX","zip":"78721","n_payees":1,"n_payments":1,"total":415.32,"names":["Timm, Emily"],"lon":-97.696178291127,"lat":30.277626138387,"matched":"1204 GREENWOOD AVE, AUSTIN, TX, 78721"},{"addr":"817 Slaters Ln.","city":"Alexandria","state":"VA","zip":"22314","n_payees":1,"n_payments":1,"total":100000.0,"names":["National Media"],"lon":-77.046437396945,"lat":38.821552760049,"matched":"817 SLATERS LN, ALEXANDRIA, VA, 22314"},{"addr":"7313 Menchaca Rd","city":"Austin","state":"TX","zip":"78745","n_payees":1,"n_payments":1,"total":54.0,"names":["USPS"],"lon":-97.808887981659,"lat":30.197510525813,"matched":"7313 MANCHACA RD, AUSTIN, TX, 78745"},{"addr":"2620 West Anderson Lane","city":"Austin","state":"TX","zip":"78757","n_payees":2,"n_payments":2,"total":62.28,"names":["Office Depot","Office Depot/Office Max"],"lon":-97.733336496247,"lat":30.35741563763,"matched":"2620 W ANDERSON LN, AUSTIN, TX, 78757"},{"addr":"1800 San Gabriel Street","city":"Austin","state":"TX","zip":"78701","n_payees":1,"n_payments":1,"total":400.0,"names":["Meisenbach, Megan"],"lon":-97.748784599985,"lat":30.282611188864,"matched":"1800 SAN GABRIEL ST, AUSTIN, TX, 78701"},{"addr":"2 Seaport Ln, #8c","city":"Boston","state":"MA","zip":"02210","n_payees":1,"n_payments":2,"total":120.0,"names":["Wave Video Agency"],"lon":-71.041007962292,"lat":42.349629930931,"matched":"2 SEAPORT LN, BOSTON, MA, 02210"},{"addr":"675 Ponce De Leon Ave NE, Ste 5000","city":"Atlanta","state":"GA","zip":"30308","n_payees":1,"n_payments":1,"total":490.36,"names":["mailchimp"],"lon":-84.365182750081,"lat":33.773272810809,"matched":"675 PONCE DE LEON AVE NE, ATLANTA, GA, 30308"},{"addr":"9700 NW 112th Ave","city":"Miami","state":"FL","zip":"33178","n_payees":1,"n_payments":1,"total":38.87,"names":["Simple Mobile"],"lon":-80.379687673189,"lat":25.861641457564,"matched":"9700 NW 112TH AVE, MIAMI, FL, 33178"},{"addr":"3267 Bee Caves Rd Ste 107","city":"Austin","state":"TX","zip":"78746","n_payees":1,"n_payments":1,"total":6.0,"names":["The UPS Store"],"lon":-97.801061470161,"lat":30.274828608222,"matched":"3267 BEE CAVES RD, AUSTIN, TX, 78746"},{"addr":"6406 N I35","city":"Austin","state":"TX","zip":"78752","n_payees":1,"n_payments":1,"total":175.34,"names":["FedEx"],"lon":-97.707304996913,"lat":30.32382843235,"matched":"6406 N I- 35 SVC RD, AUSTIN, TX, 78752"},{"addr":"4800 Manor Rd","city":"Austin","state":"TX","zip":"78723","n_payees":1,"n_payments":1,"total":250.0,"names":["Big Brother Big Sisters"],"lon":-97.688969858832,"lat":30.295253553201,"matched":"4800 MANOR RD, AUSTIN, TX, 78723"},{"addr":"1023 Springdale Rd, #10D","city":"Austin","state":"TX","zip":"78721","n_payees":1,"n_payments":1,"total":25.0,"names":["Austin Parks Foundation"],"lon":-97.693463309561,"lat":30.268725946821,"matched":"1023 SPRINGDALE RD, AUSTIN, TX, 78721"},{"addr":"4001 N. Lamar Blvd.","city":"Austin","state":"TX","zip":"78756","n_payees":1,"n_payments":6,"total":491.65,"names":["Central Market"],"lon":-97.741301669884,"lat":30.30788616425,"matched":"4001 N LAMAR BLVD, AUSTIN, TX, 78756"},{"addr":"1201 San Jacinto Blvd","city":"Austin","state":"TX","zip":"78701","n_payees":1,"n_payments":1,"total":4.5,"names":["TX Capitol Parking Meters"],"lon":-97.738149714465,"lat":30.273242299719,"matched":"1201 SAN JACINTO BLVD, AUSTIN, TX, 78701"},{"addr":"301 West 2nd ST","city":"Austin","state":"TX","zip":"78701","n_payees":2,"n_payments":2,"total":40.0,"names":["Austin City Hall","Austin City Hall Garage"],"lon":-97.746667725764,"lat":30.264958774964,"matched":"301 W 2ND ST, AUSTIN, TX, 78701"},{"addr":"1509 Nickerson St","city":"Austin","state":"TX","zip":"78704","n_payees":1,"n_payments":1,"total":402.95,"names":["Goldberg, Susan"],"lon":-97.748757103634,"lat":30.24844156879,"matched":"1509 NICKERSON ST, AUSTIN, TX, 78704"},{"addr":"10423 McKalla Place","city":"Austin","state":"TX","zip":"78758","n_payees":3,"n_payments":19,"total":215269.66,"names":["Paragon Printing","Paragon Printing & Mailing","Parragon Printing & Mailing"],"lon":-97.719301809241,"lat":30.38489834258,"matched":"10423 MC KALLA PL, AUSTIN, TX, 78758"},{"addr":"1 Market Street #600","city":"San Francisco","state":"CA","zip":"94105","n_payees":1,"n_payments":1,"total":24.0,"names":["Visa Internatioal"],"lon":-122.394694960214,"lat":37.794409085395,"matched":"1 MARKET ST, SAN FRANCISCO, CA, 94105"},{"addr":"2400 S. Congress Ave","city":"Austin","state":"TX","zip":"78704","n_payees":1,"n_payments":1,"total":64.82,"names":["HEB"],"lon":-97.753612294813,"lat":30.238750794811,"matched":"2400 CONGRESS AVE S, AUSTIN, TX, 78704"},{"addr":"3909 N IH-35","city":"Austin","state":"TX","zip":"78722","n_payees":1,"n_payments":2,"total":12.0,"names":["Fiesta Mart"],"lon":-97.718677338137,"lat":30.295716091398,"matched":"3909 N I- 35 SVC RD, AUSTIN, TX, 78722"},{"addr":"3939 Bee Caves Road C100","city":"Austin","state":"TX","zip":"78746","n_payees":2,"n_payments":2,"total":800.0,"names":["Coon, Jonathan","Coon, Kirsten"],"lon":-97.809056289399,"lat":30.281745700635,"matched":"3939 BEE CAVES RD, AUSTIN, TX, 78746"},{"addr":"1616 West 6th St.","city":"Austin","state":"TX","zip":"78703","n_payees":1,"n_payments":1,"total":703.63,"names":["Crossroads Consulting"],"lon":-97.76396959408,"lat":30.275656169843,"matched":"1616 W 6TH ST, AUSTIN, TX, 78703"},{"addr":"750 17th St NW, Ste 500","city":"Washington","state":"DC","zip":"20006","n_payees":1,"n_payments":1,"total":3408.75,"names":["Wildfire Contact"],"lon":-77.039523361249,"lat":38.899522002167,"matched":"750 17TH ST NW, WASHINGTON, DC, 20006"},{"addr":"PO BOX 20063, GREELEY SQUARE STATION 4 EAST 27TH STREET","city":"New York","state":"NY","zip":"10001","n_payees":1,"n_payments":14,"total":7633.98,"names":["The Movement Cooperative"],"lon":-73.987687598886,"lat":40.743971914363,"matched":"4 E 27TH ST, NEW YORK, NY, 10016"},{"addr":"10551 Bilbrook Place","city":"Austinn","state":"TX","zip":"78748","n_payees":1,"n_payments":1,"total":5000.0,"names":["Wick, Jim"],"lon":-97.813123951417,"lat":30.159011687227,"matched":"10551 BILBROOK PL, AUSTIN, TX, 78748"},{"addr":"2620 W Anderson Ln","city":"Austin","state":"TX","zip":"78757","n_payees":3,"n_payments":53,"total":5511.32,"names":["Office Depot","Office Depot Store #2784","Office Max"],"lon":-97.733336496247,"lat":30.35741563763,"matched":"2620 W ANDERSON LN, AUSTIN, TX, 78757"},{"addr":"3000 Tom Miller","city":"Austin","state":"TX","zip":"78723","n_payees":1,"n_payments":2,"total":832.0,"names":["Pool, Leslie"],"lon":-97.697382965391,"lat":30.29032018743,"matched":"3000 TOM MILLER ST, AUSTIN, TX, 78723"},{"addr":"4230 Duval St","city":"Austin","state":"TX","zip":"78751","n_payees":1,"n_payments":2,"total":80.67,"names":["Julio's Cafe"],"lon":-97.726501339235,"lat":30.304160528115,"matched":"4230 DUVAL ST, AUSTIN, TX, 78751"},{"addr":"200 E. 30th St","city":"Austin","state":"TX","zip":"78705","n_payees":1,"n_payments":2,"total":15000.0,"names":["Texas Public Interest Research Group, Inc."],"lon":-97.736715114442,"lat":30.293776047213,"matched":"200 E 30TH ST, AUSTIN, TX, 78705"},{"addr":"7211 Northeast Dr. #226, Austin, TX 78723","city":"Austin","state":"TX","zip":"78723","n_payees":2,"n_payments":2,"total":951.75,"names":["Apudo, George","Cosby, Maurese"],"lon":-97.680276641056,"lat":30.322695556152,"matched":"7211 NORTHEAST DR, AUSTIN, TX, 78723"},{"addr":"2316 Lighthouse","city":"Denton","state":"TX","zip":"76210","n_payees":1,"n_payments":1,"total":1447.0,"names":["TNT Consulting"],"lon":-97.108058709038,"lat":33.143351280639,"matched":"2316 LIGHTHOUSE DR, DENTON, TX, 76210"},{"addr":"340 E. 80th St., #2JK","city":"New York","state":"NY","zip":"10075","n_payees":1,"n_payments":1,"total":100.0,"names":["Leong, Terence"],"lon":-73.95335438283,"lat":40.773447636627,"matched":"340 E 80TH ST, NEW YORK, NY, 10075"},{"addr":"2020 Nueces St.","city":"Austin","state":"TX","zip":"78705","n_payees":1,"n_payments":2,"total":400.0,"names":["Fox, Marley"],"lon":-97.744169060461,"lat":30.283326148962,"matched":"2020 NUECES ST, AUSTIN, TX, 78705"},{"addr":"710 CR 1190","city":"Center","state":"TX","zip":"75935","n_payees":1,"n_payments":1,"total":100.0,"names":["Rains, M G"],"lon":-94.31694571415,"lat":31.683529824071,"matched":"710 CO RD 1190, CENTER, TX, 75935"},{"addr":"3030 W Ann Rd, Office #180","city":"North Las Vegas","state":"NV","zip":"89031","n_payees":1,"n_payments":1,"total":1000.0,"names":["Committee to Elect Marilyn Kirkpatrick"],"lon":-115.180475012173,"lat":36.26164274559,"matched":"3030 W ANN RD, NORTH LAS VEGAS, NV, 89031"},{"addr":"4401 West Gate Blvd","city":"Austin","state":"TX","zip":"78745","n_payees":2,"n_payments":2,"total":374.08,"names":["AT&T","ATT"],"lon":-97.80003728095,"lat":30.234951473569,"matched":"4401 W GATE BLVD, AUSTIN, TX, 78745"},{"addr":"1900 Guadalupe St","city":"Austin","state":"TX","zip":"78705","n_payees":2,"n_payments":3,"total":124.29,"names":["Dominos","Dominos Pizza"],"lon":-97.741972749012,"lat":30.281769433441,"matched":"1900 GUADALUPE ST, AUSTIN, TX, 78705"},{"addr":"341 South Main Street, Suite 500","city":"Salt Lake City","state":"UT","zip":"84111","n_payees":1,"n_payments":2,"total":78.0,"names":["Murf Studio"],"lon":-111.891013144721,"lat":40.761951958465,"matched":"341 S MAIN ST, SALT LAKE CITY, UT, 84111"},{"addr":"2904 Brinwood Ave","city":"Austin","state":"TX","zip":"78704","n_payees":1,"n_payments":1,"total":150.0,"names":["Birchum, Jana"],"lon":-97.760264775739,"lat":30.233983656421,"matched":"2904 BRINWOOD AVE, AUSTIN, TX, 78704"},{"addr":"1515 Dungan Lane, 200C","city":"Austin","state":"TX","zip":"78754","n_payees":1,"n_payments":1,"total":126.49,"names":["Austin Chair and Table Rental"],"lon":-97.674746393895,"lat":30.352058361333,"matched":"1515 DUNGAN LN, AUSTIN, TX, 78754"},{"addr":"1608 Colony Creek Dr","city":"Austin","state":"TX","zip":"78758","n_payees":1,"n_payments":2,"total":600.0,"names":["Boonto, Isa"],"lon":-97.712390583907,"lat":30.367038269732,"matched":"1608 COLONY CREEK DR, AUSTIN, TX, 78758"},{"addr":"629 Dalton Lane","city":"Austin","state":"TX","zip":"78742","n_payees":1,"n_payments":1,"total":88.89,"names":["hittlesey"],"lon":-97.663716366268,"lat":30.236317463692,"matched":"629 DALTON LN, AUSTIN, TX, 78742"},{"addr":"6448 E Hwy 290 c102","city":"Austin","state":"TX","zip":"78723","n_payees":2,"n_payments":5,"total":8066.98,"names":["Austin Texas Print","AustinTexasPrint"],"lon":-97.696662350256,"lat":30.322035441013,"matched":"6448 E HWY 290, AUSTIN, TX, 78723"},{"addr":"1400 South Congress Ave","city":"Austin","state":"TX","zip":"78704","n_payees":1,"n_payments":2,"total":517.93,"names":["Perla's Seafood"],"lon":-97.749674742276,"lat":30.249786501861,"matched":"1400 CONGRESS AVE S, AUSTIN, TX, 78704"},{"addr":"4711 Spicewood Springs Road","city":"Austin","state":"TX","zip":"78759","n_payees":1,"n_payments":1,"total":857.75,"names":["HD Campaigns LLC"],"lon":-97.762502388185,"lat":30.375657118431,"matched":"4711 SPICEWOOD SPRINGS RD, AUSTIN, TX, 78759"},{"addr":"2600 SW Military Dr, Suite 211","city":"San Antonio","state":"TX","zip":"78224","n_payees":1,"n_payments":1,"total":1000.0,"names":["Cortez, Philip"],"lon":-98.53714257093,"lat":29.35658736118,"matched":"2600 SW MILITARY DR, SAN ANTONIO, TX, 78224"},